[
   {
      "LNG": "6.144485",
      "INVESTISSEMENT": "4078",
      "TRAVAUX": "Isolation",
      "KG CO2 EVITES": 400,
      "TYPE TRAVAUX": "Toiture",
      "LAT": "48.68117",
      "KWH CUMAC": "104400",
      "AIDE FINANCIERE": "348",
      "ADRESSE": "Allée Des Mirabelles",
      "KWH ECONOMISES": 4800,
      "ANNEE": 2014,
      "CP": 54520,
      "VILLE": "Laxou",
      "CHAUFFAGE": "Electricite"
   },
   {
      "LNG": "6.134798",
      "INVESTISSEMENT": "3000",
      "TRAVAUX": "Isolation",
      "KG CO2 EVITES": 1100,
      "TYPE TRAVAUX": "Toiture",
      "LAT": "48.68465",
      "KWH CUMAC": "117800",
      "AIDE FINANCIERE": "374,4",
      "ADRESSE": "Rue De Lavaux",
      "KWH ECONOMISES": 5500,
      "ANNEE": 2014,
      "CP": 54520,
      "VILLE": "Laxou",
      "CHAUFFAGE": "Gaz"
   },
   {
      "LNG": "6.172701",
      "INVESTISSEMENT": "2864",
      "TRAVAUX": "Chauffage",
      "KG CO2 EVITES": 1100,
      "TYPE TRAVAUX": "Gaz condensation",
      "LAT": "48.67879",
      "KWH CUMAC": "108000",
      "AIDE FINANCIERE": "350",
      "ADRESSE": "Rue Durival",
      "KWH ECONOMISES": 5300,
      "ANNEE": 2014,
      "CP": 54000,
      "VILLE": "Nancy",
      "CHAUFFAGE": "Gaz"
   },
   {
      "LNG": "6.178122",
      "INVESTISSEMENT": "2470,74",
      "TRAVAUX": "Isolation",
      "KG CO2 EVITES": 1600,
      "TYPE TRAVAUX": "Toiture",
      "LAT": "48.65594",
      "KWH CUMAC": "163400",
      "AIDE FINANCIERE": "688",
      "ADRESSE": "Rue Charles Gounod",
      "KWH ECONOMISES": 7600,
      "ANNEE": 2014,
      "CP": 54500,
      "VILLE": "Vandoeuvre-lès-Nancy",
      "CHAUFFAGE": "Gaz"
   },
   {
      "LNG": "6.159479",
      "INVESTISSEMENT": "5359,63",
      "TRAVAUX": "Chauffage",
      "KG CO2 EVITES": 1300,
      "TYPE TRAVAUX": "Gaz condensation",
      "LAT": "48.61502",
      "KWH CUMAC": "132000",
      "AIDE FINANCIERE": "550",
      "ADRESSE": "Impasse De Bougainville",
      "KWH ECONOMISES": 6500,
      "ANNEE": 2014,
      "CP": 54710,
      "VILLE": "Ludres",
      "CHAUFFAGE": "Gaz"
   },
   {
      "LNG": "6.185082",
      "INVESTISSEMENT": "6172,8",
      "TRAVAUX": "Chauffage",
      "KG CO2 EVITES": 1700,
      "TYPE TRAVAUX": "Gaz condensation",
      "LAT": "48.71503",
      "KWH CUMAC": "168000",
      "AIDE FINANCIERE": "550",
      "ADRESSE": "Allée Des Vignes",
      "KWH ECONOMISES": 8300,
      "ANNEE": 2014,
      "CP": 54220,
      "VILLE": "Malzéville",
      "CHAUFFAGE": "Gaz"
   },
   {
      "LNG": "6.198370",
      "INVESTISSEMENT": "1800",
      "TRAVAUX": "Isolation",
      "KG CO2 EVITES": 1900,
      "TYPE TRAVAUX": "Toiture",
      "LAT": "48.70422",
      "KWH CUMAC": "201400",
      "AIDE FINANCIERE": "848",
      "ADRESSE": "Rue Branly",
      "KWH ECONOMISES": 9300,
      "ANNEE": 2014,
      "CP": 54130,
      "VILLE": "Saint-Max",
      "CHAUFFAGE": "Gaz"
   },
   {
      "LNG": "6.167629",
      "INVESTISSEMENT": "7587,45",
      "TRAVAUX": "Chauffage",
      "KG CO2 EVITES": 600,
      "TYPE TRAVAUX": "Gaz condensation",
      "LAT": "48.68565",
      "KWH CUMAC": "61000",
      "AIDE FINANCIERE": "250",
      "ADRESSE": "Rue De La Commanderie",
      "KWH ECONOMISES": 2800,
      "ANNEE": 2014,
      "CP": 54000,
      "VILLE": "Nancy",
      "CHAUFFAGE": "Gaz"
   },
   {
      "LNG": "6.111325",
      "INVESTISSEMENT": "4798,03",
      "TRAVAUX": "Chauffage",
      "KG CO2 EVITES": 1300,
      "TYPE TRAVAUX": "Gaz condensation",
      "LAT": "48.65195",
      "KWH CUMAC": "132000",
      "AIDE FINANCIERE": "550",
      "ADRESSE": "Rue De La Sivrite",
      "KWH ECONOMISES": 6500,
      "ANNEE": 2014,
      "CP": 54600,
      "VILLE": "Villers-lès-Nancy",
      "CHAUFFAGE": "Gaz"
   },
   {
      "LNG": "6.244518",
      "INVESTISSEMENT": "3702,54",
      "TRAVAUX": "Isolation",
      "KG CO2 EVITES": 500,
      "TYPE TRAVAUX": "Toiture",
      "LAT": "48.69221",
      "KWH CUMAC": "129600",
      "AIDE FINANCIERE": "432",
      "ADRESSE": "Rue André Malraux",
      "KWH ECONOMISES": 6000,
      "ANNEE": 2014,
      "CP": 54420,
      "VILLE": "Saulxures-lès-Nancy",
      "CHAUFFAGE": "Electricite"
   },
   {
      "LNG": "6.218947",
      "INVESTISSEMENT": "4834,74",
      "TRAVAUX": "Chauffage",
      "KG CO2 EVITES": 1100,
      "TYPE TRAVAUX": "Gaz condensation",
      "LAT": "48.70778",
      "KWH CUMAC": "108000",
      "AIDE FINANCIERE": "350",
      "ADRESSE": "Rue De La Fallée",
      "KWH ECONOMISES": 5300,
      "ANNEE": 2014,
      "CP": 54270,
      "VILLE": "Essey-lès-Nancy",
      "CHAUFFAGE": "Gaz"
   },
   {
      "LNG": "6.141070",
      "INVESTISSEMENT": "9000",
      "TRAVAUX": "Isolation",
      "KG CO2 EVITES": 3400,
      "TYPE TRAVAUX": "Toiture",
      "LAT": "48.68017",
      "KWH CUMAC": "355300",
      "AIDE FINANCIERE": "1122",
      "ADRESSE": "Rue De L'Embanie",
      "KWH ECONOMISES": 16500,
      "ANNEE": 2014,
      "CP": 54520,
      "VILLE": "Laxou",
      "CHAUFFAGE": "Gaz"
   },
   {
      "LNG": "6.107958",
      "INVESTISSEMENT": "4471,03",
      "TRAVAUX": "Chauffage",
      "KG CO2 EVITES": 1300,
      "TYPE TRAVAUX": "Gaz condensation",
      "LAT": "48.65708",
      "KWH CUMAC": "132000",
      "AIDE FINANCIERE": "550",
      "ADRESSE": "Croix Grand Colas",
      "KWH ECONOMISES": 6500,
      "ANNEE": 2014,
      "CP": 54600,
      "VILLE": "Villers-lès-Nancy",
      "CHAUFFAGE": "Gaz"
   },
   {
      "LNG": "6.139119",
      "INVESTISSEMENT": "3760",
      "TRAVAUX": "Isolation",
      "KG CO2 EVITES": 2300,
      "TYPE TRAVAUX": "Toiture",
      "LAT": "48.67262",
      "KWH CUMAC": "237500",
      "AIDE FINANCIERE": "1000",
      "ADRESSE": "Rue De Versigny",
      "KWH ECONOMISES": 11000,
      "ANNEE": 2014,
      "CP": 54600,
      "VILLE": "Villers-lès-Nancy",
      "CHAUFFAGE": "Gaz"
   },
   {
      "LNG": "6.161076",
      "INVESTISSEMENT": "5945,13",
      "TRAVAUX": "Chauffage",
      "KG CO2 EVITES": 1700,
      "TYPE TRAVAUX": "Gaz condensation",
      "LAT": "48.69932",
      "KWH CUMAC": "168000",
      "AIDE FINANCIERE": "550",
      "ADRESSE": "Rue Joseph Mougin",
      "KWH ECONOMISES": 8300,
      "ANNEE": 2014,
      "CP": 54000,
      "VILLE": "Nancy",
      "CHAUFFAGE": "Gaz"
   },
   {
      "LNG": "6.158862",
      "INVESTISSEMENT": "6000",
      "TRAVAUX": "Chauffage",
      "KG CO2 EVITES": 1700,
      "TYPE TRAVAUX": "Gaz condensation",
      "LAT": "48.68556",
      "KWH CUMAC": "168000",
      "AIDE FINANCIERE": "550",
      "ADRESSE": "Rue Du Sergent Bibillon",
      "KWH ECONOMISES": 8300,
      "ANNEE": 2014,
      "CP": 54000,
      "VILLE": "Nancy",
      "CHAUFFAGE": "Gaz"
   },
   {
      "LNG": "6.165795",
      "INVESTISSEMENT": "2279,5",
      "TRAVAUX": "Isolation",
      "KG CO2 EVITES": 2000,
      "TYPE TRAVAUX": "Toiture",
      "LAT": "48.61045",
      "KWH CUMAC": "212800",
      "AIDE FINANCIERE": "896",
      "ADRESSE": "Rue Joseph Cugnot",
      "KWH ECONOMISES": 9900,
      "ANNEE": 2014,
      "CP": 54710,
      "VILLE": "Ludres",
      "CHAUFFAGE": "Gaz"
   },
   {
      "LNG": "6.172183",
      "INVESTISSEMENT": "6500",
      "TRAVAUX": "Chauffage",
      "KG CO2 EVITES": 1700,
      "TYPE TRAVAUX": "Gaz condensation",
      "LAT": "48.66867",
      "KWH CUMAC": "168000",
      "AIDE FINANCIERE": "550",
      "ADRESSE": "Rue Loevenbruck",
      "KWH ECONOMISES": 8300,
      "ANNEE": 2014,
      "CP": 54500,
      "VILLE": "Vandoeuvre-lès-Nancy",
      "CHAUFFAGE": "Gaz"
   },
   {
      "LNG": "6.194180",
      "INVESTISSEMENT": "4554",
      "TRAVAUX": "Chauffage",
      "KG CO2 EVITES": 1300,
      "TYPE TRAVAUX": "Gaz condensation",
      "LAT": "48.62187",
      "KWH CUMAC": "132000",
      "AIDE FINANCIERE": "550",
      "ADRESSE": "Rue Des Bouvreuils",
      "KWH ECONOMISES": 6500,
      "ANNEE": 2014,
      "CP": 54710,
      "VILLE": "Fléville-devant-Nancy",
      "CHAUFFAGE": "Gaz"
   },
   {
      "LNG": "6.177448",
      "INVESTISSEMENT": "4500,63",
      "TRAVAUX": "Chauffage",
      "KG CO2 EVITES": 1300,
      "TYPE TRAVAUX": "Gaz condensation",
      "LAT": "48.63513",
      "KWH CUMAC": "132000",
      "AIDE FINANCIERE": "550",
      "ADRESSE": "Rue Louis Majorelle",
      "KWH ECONOMISES": 6500,
      "ANNEE": 2014,
      "CP": 54180,
      "VILLE": "Houdemont",
      "CHAUFFAGE": "Gaz"
   },
   {
      "LNG": "6.139085",
      "INVESTISSEMENT": "3424",
      "TRAVAUX": "Chauffage",
      "KG CO2 EVITES": 1100,
      "TYPE TRAVAUX": "Gaz condensation",
      "LAT": "48.66830",
      "KWH CUMAC": "108000",
      "AIDE FINANCIERE": "550",
      "ADRESSE": "Rue Charles Oudille",
      "KWH ECONOMISES": 5300,
      "ANNEE": 2014,
      "CP": 54600,
      "VILLE": "Villers-lès-Nancy",
      "CHAUFFAGE": "Gaz"
   },
   {
      "LNG": "6.158251",
      "INVESTISSEMENT": "8944,45",
      "TRAVAUX": "Isolation",
      "KG CO2 EVITES": 2300,
      "TYPE TRAVAUX": "Toiture",
      "LAT": "48.62064",
      "KWH CUMAC": "237500",
      "AIDE FINANCIERE": "750",
      "ADRESSE": "Grande Rue",
      "KWH ECONOMISES": 11000,
      "ANNEE": 2014,
      "CP": 54710,
      "VILLE": "Ludres",
      "CHAUFFAGE": "Gaz"
   },
   {
      "LNG": "6.172324",
      "INVESTISSEMENT": "7000",
      "TRAVAUX": "Isolation",
      "KG CO2 EVITES": 800,
      "TYPE TRAVAUX": "Toiture",
      "LAT": "48.61180",
      "KWH CUMAC": "161200",
      "AIDE FINANCIERE": "520",
      "ADRESSE": "Rue Georges De La Tour",
      "KWH ECONOMISES": 3700,
      "ANNEE": 2014,
      "CP": 54710,
      "VILLE": "Ludres",
      "CHAUFFAGE": "Gaz"
   },
   {
      "LNG": "6.172324",
      "INVESTISSEMENT": "3051,23",
      "TRAVAUX": "Isolation",
      "KG CO2 EVITES": 200,
      "TYPE TRAVAUX": "Sol",
      "LAT": "48.61180",
      "KWH CUMAC": "64600",
      "AIDE FINANCIERE": "221",
      "ADRESSE": "Rue Georges De La Tour",
      "KWH ECONOMISES": 800,
      "ANNEE": 2014,
      "CP": 54710,
      "VILLE": "Ludres",
      "CHAUFFAGE": "Gaz"
   },
   {
      "LNG": "6.163633",
      "INVESTISSEMENT": "2500",
      "TRAVAUX": "Isolation",
      "KG CO2 EVITES": 1400,
      "TYPE TRAVAUX": "Toiture",
      "LAT": "48.65538",
      "KWH CUMAC": "146300",
      "AIDE FINANCIERE": "463,02",
      "ADRESSE": "Rue De Villers",
      "KWH ECONOMISES": 6800,
      "ANNEE": 2014,
      "CP": 54500,
      "VILLE": "Vandoeuvre-lès-Nancy",
      "CHAUFFAGE": "Gaz"
   },
   {
      "LNG": "6.192266",
      "INVESTISSEMENT": "3000",
      "TRAVAUX": "Isolation",
      "KG CO2 EVITES": 1400,
      "TYPE TRAVAUX": "Toiture",
      "LAT": "48.69608",
      "KWH CUMAC": "142500",
      "AIDE FINANCIERE": "450",
      "ADRESSE": "Rue Jf Kennedy",
      "KWH ECONOMISES": 6600,
      "ANNEE": 2014,
      "CP": 54130,
      "VILLE": "Saint-Max",
      "CHAUFFAGE": "Gaz"
   },
   {
      "LNG": "6.214344",
      "INVESTISSEMENT": "10000",
      "TRAVAUX": "Chauffage",
      "KG CO2 EVITES": 1300,
      "TYPE TRAVAUX": "Gaz condensation",
      "LAT": "48.67640",
      "KWH CUMAC": "132000",
      "AIDE FINANCIERE": "550",
      "ADRESSE": "Allée René Peters",
      "KWH ECONOMISES": 6500,
      "ANNEE": 2014,
      "CP": 54510,
      "VILLE": "Tomblaine",
      "CHAUFFAGE": "Gaz"
   },
   {
      "LNG": "6.194311",
      "INVESTISSEMENT": "3354,26",
      "TRAVAUX": "Isolation",
      "KG CO2 EVITES": 2100,
      "TYPE TRAVAUX": "Toiture",
      "LAT": "48.65491",
      "KWH CUMAC": "224200",
      "AIDE FINANCIERE": "708",
      "ADRESSE": "Rue Guynemer",
      "KWH ECONOMISES": 10400,
      "ANNEE": 2014,
      "CP": 54180,
      "VILLE": "Heillecourt",
      "CHAUFFAGE": "Gaz"
   },
   {
      "LNG": "6.111325",
      "INVESTISSEMENT": "5700",
      "TRAVAUX": "Chauffage",
      "KG CO2 EVITES": 1300,
      "TYPE TRAVAUX": "Gaz condensation",
      "LAT": "48.65195",
      "KWH CUMAC": "132000",
      "AIDE FINANCIERE": "550",
      "ADRESSE": "Rue De La Sivrite",
      "KWH ECONOMISES": 6500,
      "ANNEE": 2014,
      "CP": 54600,
      "VILLE": "Villers-lès-Nancy",
      "CHAUFFAGE": "Gaz"
   },
   {
      "LNG": "6.240651",
      "INVESTISSEMENT": "2784,11",
      "TRAVAUX": "Isolation",
      "KG CO2 EVITES": 2000,
      "TYPE TRAVAUX": "Toiture",
      "LAT": "48.67571",
      "KWH CUMAC": "212800",
      "AIDE FINANCIERE": "672",
      "ADRESSE": "Rue Du Dauphiné",
      "KWH ECONOMISES": 9900,
      "ANNEE": 2014,
      "CP": 54420,
      "VILLE": "Saulxures-lès-Nancy",
      "CHAUFFAGE": "Gaz"
   },
   {
      "LNG": "6.169354",
      "INVESTISSEMENT": "6230,66",
      "TRAVAUX": "Chauffage",
      "KG CO2 EVITES": 1300,
      "TYPE TRAVAUX": "Gaz condensation",
      "LAT": "48.70068",
      "KWH CUMAC": "132000",
      "AIDE FINANCIERE": "550",
      "ADRESSE": "Rue Du Faubourg Des 3 Maisons",
      "KWH ECONOMISES": 6500,
      "ANNEE": 2014,
      "CP": 54000,
      "VILLE": "Nancy",
      "CHAUFFAGE": "Gaz"
   },
   {
      "LNG": "6.263480",
      "INVESTISSEMENT": "8149,45",
      "TRAVAUX": "Isolation",
      "KG CO2 EVITES": 1000,
      "TYPE TRAVAUX": "Sol",
      "LAT": "48.65604",
      "KWH CUMAC": "380000",
      "AIDE FINANCIERE": "1300",
      "ADRESSE": "Rue Des Frères Marianistes",
      "KWH ECONOMISES": 4900,
      "ANNEE": 2014,
      "CP": 54510,
      "VILLE": "Art-Sur-Meurthe",
      "CHAUFFAGE": "Gaz"
   },
   {
      "LNG": "6.184895",
      "INVESTISSEMENT": "6289,94",
      "TRAVAUX": "Isolation",
      "KG CO2 EVITES": 500,
      "TYPE TRAVAUX": "Murs",
      "LAT": "48.65167",
      "KWH CUMAC": "111600",
      "AIDE FINANCIERE": "367,7",
      "ADRESSE": "Grande Rue",
      "KWH ECONOMISES": 2600,
      "ANNEE": 2014,
      "CP": 54180,
      "VILLE": "Heillecourt",
      "CHAUFFAGE": "Gaz"
   },
   {
      "LNG": "6.125875",
      "INVESTISSEMENT": "3285,65176",
      "TRAVAUX": "Isolation",
      "KG CO2 EVITES": 400,
      "TYPE TRAVAUX": "Toiture",
      "LAT": "48.69863",
      "KWH CUMAC": "39900",
      "AIDE FINANCIERE": "126",
      "ADRESSE": "Rue De La Madine",
      "KWH ECONOMISES": 1800,
      "ANNEE": 2014,
      "CP": 54320,
      "VILLE": "Maxéville",
      "CHAUFFAGE": "Gaz"
   },
   {
      "LNG": "6.125875",
      "INVESTISSEMENT": "2816,27294",
      "TRAVAUX": "Isolation",
      "KG CO2 EVITES": 300,
      "TYPE TRAVAUX": "Murs",
      "LAT": "48.69863",
      "KWH CUMAC": "55800",
      "AIDE FINANCIERE": "180",
      "ADRESSE": "Rue De La Madine",
      "KWH ECONOMISES": 1300,
      "ANNEE": 2014,
      "CP": 54320,
      "VILLE": "Maxéville",
      "CHAUFFAGE": "Gaz"
   },
   {
      "LNG": "6.125875",
      "INVESTISSEMENT": "1877,51529",
      "TRAVAUX": "Isolation",
      "KG CO2 EVITES": 100,
      "TYPE TRAVAUX": "Sol",
      "LAT": "48.69863",
      "KWH CUMAC": "45600",
      "AIDE FINANCIERE": "156",
      "ADRESSE": "Rue De La Madine",
      "KWH ECONOMISES": 600,
      "ANNEE": 2014,
      "CP": 54320,
      "VILLE": "Maxéville",
      "CHAUFFAGE": "Gaz"
   },
   {
      "LNG": "6.237953",
      "INVESTISSEMENT": "6015,53",
      "TRAVAUX": "Chauffage",
      "KG CO2 EVITES": 1300,
      "TYPE TRAVAUX": "Gaz condensation",
      "LAT": "48.67677",
      "KWH CUMAC": "132000",
      "AIDE FINANCIERE": "550",
      "ADRESSE": "Rue De Normandie",
      "KWH ECONOMISES": 6500,
      "ANNEE": 2014,
      "CP": 54420,
      "VILLE": "Saulxures-lès-Nancy",
      "CHAUFFAGE": "Gaz"
   },
   {
      "LNG": "6.208363",
      "INVESTISSEMENT": "3887,68",
      "TRAVAUX": "Chauffage",
      "KG CO2 EVITES": 1300,
      "TYPE TRAVAUX": "Gaz condensation",
      "LAT": "48.62761",
      "KWH CUMAC": "132000",
      "AIDE FINANCIERE": "550",
      "ADRESSE": "Rue Charles Romer",
      "KWH ECONOMISES": 6500,
      "ANNEE": 2014,
      "CP": 54410,
      "VILLE": "Laneuveville-devant-Nancy",
      "CHAUFFAGE": "Gaz"
   },
   {
      "LNG": "6.164832",
      "INVESTISSEMENT": "2748,08",
      "TRAVAUX": "Chauffage",
      "KG CO2 EVITES": 1100,
      "TYPE TRAVAUX": "Gaz condensation",
      "LAT": "48.61503",
      "KWH CUMAC": "108000",
      "AIDE FINANCIERE": "350",
      "ADRESSE": "Impasse André Breton",
      "KWH ECONOMISES": 5300,
      "ANNEE": 2014,
      "CP": 54710,
      "VILLE": "Ludres",
      "CHAUFFAGE": "Gaz"
   },
   {
      "LNG": "6.172761",
      "INVESTISSEMENT": "11629,54",
      "TRAVAUX": "Isolation",
      "KG CO2 EVITES": 1300,
      "TYPE TRAVAUX": "Toiture",
      "LAT": "48.70852",
      "KWH CUMAC": "133000",
      "AIDE FINANCIERE": "420",
      "ADRESSE": "Avenue De La Meurthe",
      "KWH ECONOMISES": 6200,
      "ANNEE": 2014,
      "CP": 54320,
      "VILLE": "Maxéville",
      "CHAUFFAGE": "Gaz"
   },
   {
      "LNG": "6.172324",
      "INVESTISSEMENT": "5313,74",
      "TRAVAUX": "Chauffage",
      "KG CO2 EVITES": 1300,
      "TYPE TRAVAUX": "Gaz condensation",
      "LAT": "48.61180",
      "KWH CUMAC": "132000",
      "AIDE FINANCIERE": "550",
      "ADRESSE": "Rue Georges De La Tour",
      "KWH ECONOMISES": 6500,
      "ANNEE": 2014,
      "CP": 54710,
      "VILLE": "Ludres",
      "CHAUFFAGE": "Gaz"
   },
   {
      "LNG": "6.133999",
      "INVESTISSEMENT": "6100",
      "TRAVAUX": "Chauffage",
      "KG CO2 EVITES": 1700,
      "TYPE TRAVAUX": "Gaz condensation",
      "LAT": "48.68495",
      "KWH CUMAC": "168000",
      "AIDE FINANCIERE": "550",
      "ADRESSE": "B, Rue De La Forêt",
      "KWH ECONOMISES": 8300,
      "ANNEE": 2014,
      "CP": 54520,
      "VILLE": "Laxou",
      "CHAUFFAGE": "Gaz"
   },
   {
      "LNG": "6.194898",
      "INVESTISSEMENT": "5089,21",
      "TRAVAUX": "Chauffage",
      "KG CO2 EVITES": 1300,
      "TYPE TRAVAUX": "Gaz condensation",
      "LAT": "48.66889",
      "KWH CUMAC": "132000",
      "AIDE FINANCIERE": "550",
      "ADRESSE": "Rue Du Général Leclerc",
      "KWH ECONOMISES": 6500,
      "ANNEE": 2014,
      "CP": 54140,
      "VILLE": "Jarville-la-Malgrange",
      "CHAUFFAGE": "Gaz"
   },
   {
      "LNG": "6.176675",
      "INVESTISSEMENT": "4196,79",
      "TRAVAUX": "Chauffage",
      "KG CO2 EVITES": 600,
      "TYPE TRAVAUX": "Gaz condensation",
      "LAT": "48.67880",
      "KWH CUMAC": "61000",
      "AIDE FINANCIERE": "250",
      "ADRESSE": "Boulevard Jean Jaurès",
      "KWH ECONOMISES": 2800,
      "ANNEE": 2014,
      "CP": 54000,
      "VILLE": "Nancy",
      "CHAUFFAGE": "Gaz"
   },
   {
      "LNG": "6.265183",
      "INVESTISSEMENT": "5439,02",
      "TRAVAUX": "Chauffage",
      "KG CO2 EVITES": 1100,
      "TYPE TRAVAUX": "Gaz condensation",
      "LAT": "48.70997",
      "KWH CUMAC": "108000",
      "AIDE FINANCIERE": "350",
      "ADRESSE": "Rue Des Poteries",
      "KWH ECONOMISES": 5300,
      "ANNEE": 2014,
      "CP": 54280,
      "VILLE": "Seichamps",
      "CHAUFFAGE": "Gaz"
   },
   {
      "LNG": "6.153489",
      "INVESTISSEMENT": "5000",
      "TRAVAUX": "Isolation",
      "KG CO2 EVITES": 1800,
      "TYPE TRAVAUX": "Toiture",
      "LAT": "48.66347",
      "KWH CUMAC": "190000",
      "AIDE FINANCIERE": "600",
      "ADRESSE": "Rue De La Grande Corvée",
      "KWH ECONOMISES": 8800,
      "ANNEE": 2014,
      "CP": 54600,
      "VILLE": "Villers-lès-Nancy",
      "CHAUFFAGE": "Gaz"
   },
   {
      "LNG": "6.150015",
      "INVESTISSEMENT": "10550",
      "TRAVAUX": "Chauffage",
      "KG CO2 EVITES": 600,
      "TYPE TRAVAUX": "Gaz condensation",
      "LAT": "48.68363",
      "KWH CUMAC": "61000",
      "AIDE FINANCIERE": "250",
      "ADRESSE": "Avenue Paul Déroulède",
      "KWH ECONOMISES": 2800,
      "ANNEE": 2014,
      "CP": 54520,
      "VILLE": "Laxou",
      "CHAUFFAGE": "Gaz"
   },
   {
      "LNG": "6.172538",
      "INVESTISSEMENT": "4656,5",
      "TRAVAUX": "Chauffage",
      "KG CO2 EVITES": 1700,
      "TYPE TRAVAUX": "Gaz condensation",
      "LAT": "48.65053",
      "KWH CUMAC": "168000",
      "AIDE FINANCIERE": "550",
      "ADRESSE": "Rue Des Glières",
      "KWH ECONOMISES": 8300,
      "ANNEE": 2014,
      "CP": 54500,
      "VILLE": "Vandoeuvre-lès-Nancy",
      "CHAUFFAGE": "Gaz"
   },
   {
      "LNG": "6.146676",
      "INVESTISSEMENT": "3690",
      "TRAVAUX": "Chauffage",
      "KG CO2 EVITES": 1700,
      "TYPE TRAVAUX": "Gaz condensation",
      "LAT": "48.67376",
      "KWH CUMAC": "168000",
      "AIDE FINANCIERE": "550",
      "ADRESSE": "Rue Edouard Herriot",
      "KWH ECONOMISES": 8300,
      "ANNEE": 2014,
      "CP": 54600,
      "VILLE": "Villers-lès-Nancy",
      "CHAUFFAGE": "Gaz"
   },
   {
      "LNG": "6.146676",
      "INVESTISSEMENT": "4260",
      "TRAVAUX": "Chauffage",
      "KG CO2 EVITES": 1700,
      "TYPE TRAVAUX": "Gaz condensation",
      "LAT": "48.67376",
      "KWH CUMAC": "168000",
      "AIDE FINANCIERE": "550",
      "ADRESSE": "Rue Edouard Herriot",
      "KWH ECONOMISES": 8300,
      "ANNEE": 2014,
      "CP": 54600,
      "VILLE": "Villers-lès-Nancy",
      "CHAUFFAGE": "Gaz"
   },
   {
      "LNG": "6.155061",
      "INVESTISSEMENT": "2728",
      "TRAVAUX": "Chauffage",
      "KG CO2 EVITES": 1700,
      "TYPE TRAVAUX": "Gaz condensation",
      "LAT": "48.61859",
      "KWH CUMAC": "168000",
      "AIDE FINANCIERE": "550",
      "ADRESSE": "Rue Eric Tabarly",
      "KWH ECONOMISES": 8300,
      "ANNEE": 2014,
      "CP": 54710,
      "VILLE": "Ludres",
      "CHAUFFAGE": "Gaz"
   },
   {
      "LNG": "6.261012",
      "INVESTISSEMENT": "4231",
      "TRAVAUX": "Chauffage",
      "KG CO2 EVITES": 1700,
      "TYPE TRAVAUX": "Gaz condensation",
      "LAT": "48.69874",
      "KWH CUMAC": "168000",
      "AIDE FINANCIERE": "550",
      "ADRESSE": "Alllée Des Fairways",
      "KWH ECONOMISES": 8300,
      "ANNEE": 2014,
      "CP": 54425,
      "VILLE": "Pulnoy",
      "CHAUFFAGE": "Gaz"
   },
   {
      "LNG": "6.188036",
      "INVESTISSEMENT": "1710",
      "TRAVAUX": "Isolation",
      "KG CO2 EVITES": 300,
      "TYPE TRAVAUX": "Toiture",
      "LAT": "48.64873",
      "KWH CUMAC": "81600",
      "AIDE FINANCIERE": "273,68",
      "ADRESSE": "Rue Eugène Vallin",
      "KWH ECONOMISES": 3800,
      "ANNEE": 2014,
      "CP": 54180,
      "VILLE": "Heillecourt",
      "CHAUFFAGE": "Electricite"
   },
   {
      "LNG": "6.221545",
      "INVESTISSEMENT": "1800",
      "TRAVAUX": "Isolation",
      "KG CO2 EVITES": 600,
      "TYPE TRAVAUX": "Toiture",
      "LAT": "48.65183",
      "KWH CUMAC": "144000",
      "AIDE FINANCIERE": "480",
      "ADRESSE": "Rue Des Aulnois",
      "KWH ECONOMISES": 6700,
      "ANNEE": 2014,
      "CP": 54410,
      "VILLE": "Laneuveville-devant-Nancy",
      "CHAUFFAGE": "Electricite"
   },
   {
      "LNG": "6.216641",
      "INVESTISSEMENT": "4089",
      "TRAVAUX": "Chauffage",
      "KG CO2 EVITES": 1700,
      "TYPE TRAVAUX": "Gaz condensation",
      "LAT": "48.65315",
      "KWH CUMAC": "168000",
      "AIDE FINANCIERE": "550",
      "ADRESSE": "Rue Georges Sand",
      "KWH ECONOMISES": 8300,
      "ANNEE": 2014,
      "CP": 54410,
      "VILLE": "Laneuveville-devant-Nancy",
      "CHAUFFAGE": "Gaz"
   },
   {
      "LNG": "6.171928",
      "INVESTISSEMENT": "364",
      "TRAVAUX": "Isolation",
      "KG CO2 EVITES": 600,
      "TYPE TRAVAUX": "Sol",
      "LAT": "48.70346",
      "KWH CUMAC": "231800",
      "AIDE FINANCIERE": "976",
      "ADRESSE": "Rue Charles Dusaulx",
      "KWH ECONOMISES": 3000,
      "ANNEE": 2014,
      "CP": 54000,
      "VILLE": "Nancy",
      "CHAUFFAGE": "Gaz"
   },
   {
      "LNG": "6.260320",
      "INVESTISSEMENT": "2207,52",
      "TRAVAUX": "Isolation",
      "KG CO2 EVITES": 500,
      "TYPE TRAVAUX": "Toiture",
      "LAT": "48.70310",
      "KWH CUMAC": "129600",
      "AIDE FINANCIERE": "540",
      "ADRESSE": "Rue Des Sorbiers",
      "KWH ECONOMISES": 6000,
      "ANNEE": 2014,
      "CP": 54425,
      "VILLE": "Pulnoy",
      "CHAUFFAGE": "Electricite"
   },
   {
      "LNG": "6.195439",
      "INVESTISSEMENT": "1484",
      "TRAVAUX": "Isolation",
      "KG CO2 EVITES": 800,
      "TYPE TRAVAUX": "Murs",
      "LAT": "48.66774",
      "KWH CUMAC": "167400",
      "AIDE FINANCIERE": "543,9",
      "ADRESSE": "Rue Pasteur",
      "KWH ECONOMISES": 3900,
      "ANNEE": 2014,
      "CP": 54140,
      "VILLE": "Jarville-la-Malgrange",
      "CHAUFFAGE": "Gaz"
   },
   {
      "LNG": "6.202131",
      "INVESTISSEMENT": "3985",
      "TRAVAUX": "Chauffage",
      "KG CO2 EVITES": 1300,
      "TYPE TRAVAUX": "Gaz condensation",
      "LAT": "48.67010",
      "KWH CUMAC": "132000",
      "AIDE FINANCIERE": "550",
      "ADRESSE": "Rue Devaux",
      "KWH ECONOMISES": 6500,
      "ANNEE": 2014,
      "CP": 54140,
      "VILLE": "Jarville-la-Malgrange",
      "CHAUFFAGE": "Gaz"
   },
   {
      "LNG": "6.157718",
      "INVESTISSEMENT": "1550",
      "TRAVAUX": "Chauffage",
      "KG CO2 EVITES": 1100,
      "TYPE TRAVAUX": "Gaz condensation",
      "LAT": "48.65060",
      "KWH CUMAC": "108000",
      "AIDE FINANCIERE": "350",
      "ADRESSE": "Rue Du Roussillon",
      "KWH ECONOMISES": 5300,
      "ANNEE": 2014,
      "CP": 54500,
      "VILLE": "Vandoeuvre-lès-Nancy",
      "CHAUFFAGE": "Gaz"
   },
   {
      "LNG": "6.233812",
      "INVESTISSEMENT": "2132",
      "TRAVAUX": "Isolation",
      "KG CO2 EVITES": 1500,
      "TYPE TRAVAUX": "Toiture",
      "LAT": "48.68408",
      "KWH CUMAC": "155800",
      "AIDE FINANCIERE": "656",
      "ADRESSE": "Rue Du Vieux Moulin",
      "KWH ECONOMISES": 7200,
      "ANNEE": 2014,
      "CP": 54420,
      "VILLE": "Saulxures-lès-Nancy",
      "CHAUFFAGE": "Gaz"
   },
   {
      "LNG": "6.189910",
      "INVESTISSEMENT": "3889,01",
      "TRAVAUX": "Isolation",
      "KG CO2 EVITES": 400,
      "TYPE TRAVAUX": "Toiture",
      "LAT": "48.64806",
      "KWH CUMAC": "87600",
      "AIDE FINANCIERE": "365",
      "ADRESSE": "Rue Des Grands Jardins",
      "KWH ECONOMISES": 4100,
      "ANNEE": 2014,
      "CP": 54180,
      "VILLE": "Heillecourt",
      "CHAUFFAGE": "Electricite"
   },
   {
      "LNG": "6.189910",
      "INVESTISSEMENT": "1054,5",
      "TRAVAUX": "Isolation",
      "KG CO2 EVITES": 100,
      "TYPE TRAVAUX": "Murs",
      "LAT": "48.64806",
      "KWH CUMAC": "26600",
      "AIDE FINANCIERE": "112",
      "ADRESSE": "Rue Des Grands Jardins",
      "KWH ECONOMISES": 600,
      "ANNEE": 2014,
      "CP": 54180,
      "VILLE": "Heillecourt",
      "CHAUFFAGE": "Electricite"
   },
   {
      "LNG": "6.162130",
      "INVESTISSEMENT": "1900",
      "TRAVAUX": "Isolation",
      "KG CO2 EVITES": 500,
      "TYPE TRAVAUX": "Toiture",
      "LAT": "48.64985",
      "KWH CUMAC": "120000",
      "AIDE FINANCIERE": "400",
      "ADRESSE": "Allée Douglas",
      "KWH ECONOMISES": 5600,
      "ANNEE": 2014,
      "CP": 54500,
      "VILLE": "Vandoeuvre-lès-Nancy",
      "CHAUFFAGE": "Electricite"
   },
   {
      "LNG": "6.218445",
      "INVESTISSEMENT": "4260",
      "TRAVAUX": "Chauffage",
      "KG CO2 EVITES": 1100,
      "TYPE TRAVAUX": "Gaz condensation",
      "LAT": "48.71017",
      "KWH CUMAC": "108000",
      "AIDE FINANCIERE": "350",
      "ADRESSE": "Rue Des Chardonnerets",
      "KWH ECONOMISES": 5300,
      "ANNEE": 2014,
      "CP": 54270,
      "VILLE": "Essey-lès-Nancy",
      "CHAUFFAGE": "Gaz"
   },
   {
      "LNG": "6.145224",
      "INVESTISSEMENT": "2919,19",
      "TRAVAUX": "Isolation",
      "KG CO2 EVITES": 1500,
      "TYPE TRAVAUX": "Toiture",
      "LAT": "48.68074",
      "KWH CUMAC": "155800",
      "AIDE FINANCIERE": "492",
      "ADRESSE": "Impasse Des Jardins",
      "KWH ECONOMISES": 7200,
      "ANNEE": 2014,
      "CP": 54520,
      "VILLE": "Laxou",
      "CHAUFFAGE": "Gaz"
   },
   {
      "LNG": "6.150433",
      "INVESTISSEMENT": "3500",
      "TRAVAUX": "Chauffage",
      "KG CO2 EVITES": 1700,
      "TYPE TRAVAUX": "Gaz condensation",
      "LAT": "48.67574",
      "KWH CUMAC": "168000",
      "AIDE FINANCIERE": "550",
      "ADRESSE": "Rue Des Coteaux",
      "KWH ECONOMISES": 8300,
      "ANNEE": 2014,
      "CP": 54600,
      "VILLE": "Villers-lès-Nancy",
      "CHAUFFAGE": "Gaz"
   },
   {
      "LNG": "6.156964",
      "INVESTISSEMENT": "5390",
      "TRAVAUX": "Chauffage",
      "KG CO2 EVITES": 1700,
      "TYPE TRAVAUX": "Gaz condensation",
      "LAT": "48.68063",
      "KWH CUMAC": "168000",
      "AIDE FINANCIERE": "550",
      "ADRESSE": "Allée Neuve",
      "KWH ECONOMISES": 8300,
      "ANNEE": 2014,
      "CP": 54520,
      "VILLE": "Laxou",
      "CHAUFFAGE": "Gaz"
   },
   {
      "LNG": "6.251952",
      "INVESTISSEMENT": "6168,56",
      "TRAVAUX": "Chauffage",
      "KG CO2 EVITES": 1300,
      "TYPE TRAVAUX": "Gaz condensation",
      "LAT": "48.71261",
      "KWH CUMAC": "132000",
      "AIDE FINANCIERE": "550",
      "ADRESSE": "Avenue De Montreal",
      "KWH ECONOMISES": 6500,
      "ANNEE": 2014,
      "CP": 54280,
      "VILLE": "Seichamps",
      "CHAUFFAGE": "Gaz"
   },
   {
      "LNG": "6.244083",
      "INVESTISSEMENT": "2700",
      "TRAVAUX": "Isolation",
      "KG CO2 EVITES": 1100,
      "TYPE TRAVAUX": "Toiture",
      "LAT": "48.68861",
      "KWH CUMAC": "117002",
      "AIDE FINANCIERE": "492,64",
      "ADRESSE": "Rue Hector Berlioz",
      "KWH ECONOMISES": 5400,
      "ANNEE": 2014,
      "CP": 54420,
      "VILLE": "Saulxures-lès-Nancy",
      "CHAUFFAGE": "Gaz"
   },
   {
      "LNG": "6.244083",
      "INVESTISSEMENT": "2100",
      "TRAVAUX": "Isolation",
      "KG CO2 EVITES": 300,
      "TYPE TRAVAUX": "Toiture",
      "LAT": "48.68861",
      "KWH CUMAC": "29241",
      "AIDE FINANCIERE": "92,34",
      "ADRESSE": "Rue Hector Berlioz",
      "KWH ECONOMISES": 1400,
      "ANNEE": 2014,
      "CP": 54420,
      "VILLE": "Saulxures-lès-Nancy",
      "CHAUFFAGE": "Gaz"
   },
   {
      "LNG": "6.169030",
      "INVESTISSEMENT": "3247",
      "TRAVAUX": "Isolation",
      "KG CO2 EVITES": 500,
      "TYPE TRAVAUX": "Toiture",
      "LAT": "48.62197",
      "KWH CUMAC": "118080",
      "AIDE FINANCIERE": "492",
      "ADRESSE": "Impasse Georges Chepfer",
      "KWH ECONOMISES": 5500,
      "ANNEE": 2014,
      "CP": 54710,
      "VILLE": "Ludres",
      "CHAUFFAGE": "Electricite"
   },
   {
      "LNG": "6.175198",
      "INVESTISSEMENT": "2892",
      "TRAVAUX": "Chauffage",
      "KG CO2 EVITES": 600,
      "TYPE TRAVAUX": "Gaz condensation",
      "LAT": "48.67668",
      "KWH CUMAC": "61000",
      "AIDE FINANCIERE": "250",
      "ADRESSE": "Rue Emile Coué",
      "KWH ECONOMISES": 2800,
      "ANNEE": 2014,
      "CP": 54000,
      "VILLE": "Nancy",
      "CHAUFFAGE": "Gaz"
   },
   {
      "LNG": "6.175461",
      "INVESTISSEMENT": "15812",
      "TRAVAUX": "Isolation",
      "KG CO2 EVITES": 1600,
      "TYPE TRAVAUX": "Murs",
      "LAT": "48.67957",
      "KWH CUMAC": "347200",
      "AIDE FINANCIERE": "1120",
      "ADRESSE": "Rue Sainte Cecile",
      "KWH ECONOMISES": 8000,
      "ANNEE": 2014,
      "CP": 54000,
      "VILLE": "Nancy",
      "CHAUFFAGE": "Gaz"
   },
   {
      "LNG": "6.152099",
      "INVESTISSEMENT": "3662,47",
      "TRAVAUX": "Isolation",
      "KG CO2 EVITES": 500,
      "TYPE TRAVAUX": "Sol",
      "LAT": "48.66897",
      "KWH CUMAC": "177764",
      "AIDE FINANCIERE": "608,14",
      "ADRESSE": "Rue Des Chevrottes",
      "KWH ECONOMISES": 2300,
      "ANNEE": 2014,
      "CP": 54600,
      "VILLE": "Villers-lès-Nancy",
      "CHAUFFAGE": "Gaz"
   },
   {
      "LNG": "6.176059",
      "INVESTISSEMENT": "2056,84",
      "TRAVAUX": "Isolation",
      "KG CO2 EVITES": 700,
      "TYPE TRAVAUX": "Toiture",
      "LAT": "48.70071",
      "KWH CUMAC": "77900",
      "AIDE FINANCIERE": "246",
      "ADRESSE": "Rue Saint Fiacre",
      "KWH ECONOMISES": 3600,
      "ANNEE": 2014,
      "CP": 54000,
      "VILLE": "Nancy",
      "CHAUFFAGE": "Gaz"
   },
   {
      "LNG": "6.133999",
      "INVESTISSEMENT": "5872,15",
      "TRAVAUX": "Chauffage",
      "KG CO2 EVITES": 1300,
      "TYPE TRAVAUX": "Gaz condensation",
      "LAT": "48.68495",
      "KWH CUMAC": "132000",
      "AIDE FINANCIERE": "550",
      "ADRESSE": "Rue De La Fôret",
      "KWH ECONOMISES": 6500,
      "ANNEE": 2014,
      "CP": 54520,
      "VILLE": "Laxou",
      "CHAUFFAGE": "Gaz"
   },
   {
      "LNG": "6.205232",
      "INVESTISSEMENT": "2200",
      "TRAVAUX": "Isolation",
      "KG CO2 EVITES": 800,
      "TYPE TRAVAUX": "Toiture",
      "LAT": "48.69592",
      "KWH CUMAC": "89300",
      "AIDE FINANCIERE": "282",
      "ADRESSE": "Rue De Landerneau",
      "KWH ECONOMISES": 4100,
      "ANNEE": 2014,
      "CP": 54510,
      "VILLE": "Tomblaine",
      "CHAUFFAGE": "Gaz"
   },
   {
      "LNG": "6.156423",
      "INVESTISSEMENT": "5573,07",
      "TRAVAUX": "Chauffage",
      "KG CO2 EVITES": 1700,
      "TYPE TRAVAUX": "Gaz condensation",
      "LAT": "48.67742",
      "KWH CUMAC": "168000",
      "AIDE FINANCIERE": "550",
      "ADRESSE": "Avenue De La Libération",
      "KWH ECONOMISES": 8300,
      "ANNEE": 2014,
      "CP": 54520,
      "VILLE": "Laxou",
      "CHAUFFAGE": "Gaz"
   },
   {
      "LNG": "6.152221",
      "INVESTISSEMENT": "1200",
      "TRAVAUX": "Isolation",
      "KG CO2 EVITES": 300,
      "TYPE TRAVAUX": "Toiture",
      "LAT": "48.67649",
      "KWH CUMAC": "28500",
      "AIDE FINANCIERE": "90",
      "ADRESSE": "Rue De La République",
      "KWH ECONOMISES": 1300,
      "ANNEE": 2014,
      "CP": 54600,
      "VILLE": "Villers-lès-Nancy",
      "CHAUFFAGE": "Gaz"
   },
   {
      "LNG": "6.090487",
      "INVESTISSEMENT": "4729,85",
      "TRAVAUX": "Isolation",
      "KG CO2 EVITES": 2000,
      "TYPE TRAVAUX": "Toiture",
      "LAT": "48.64029",
      "KWH CUMAC": "206682",
      "AIDE FINANCIERE": "870,24",
      "ADRESSE": "Allée Pontus De Tyard",
      "KWH ECONOMISES": 9600,
      "ANNEE": 2014,
      "CP": 54600,
      "VILLE": "Villers-lès-Nancy",
      "CHAUFFAGE": "Gaz"
   },
   {
      "LNG": "6.176160",
      "INVESTISSEMENT": "4790",
      "TRAVAUX": "Isolation",
      "KG CO2 EVITES": 2300,
      "TYPE TRAVAUX": "Toiture",
      "LAT": "48.72280",
      "KWH CUMAC": "237500",
      "AIDE FINANCIERE": "750",
      "ADRESSE": "Rue Le Bourarel",
      "KWH ECONOMISES": 11000,
      "ANNEE": 2014,
      "CP": 54220,
      "VILLE": "Malzéville",
      "CHAUFFAGE": "Gaz"
   },
   {
      "LNG": "6.215764",
      "INVESTISSEMENT": "7410,32",
      "TRAVAUX": "Isolation",
      "KG CO2 EVITES": 600,
      "TYPE TRAVAUX": "Toiture",
      "LAT": "48.68370",
      "KWH CUMAC": "60800",
      "AIDE FINANCIERE": "192",
      "ADRESSE": "Rue Du 14 Septembre",
      "KWH ECONOMISES": 2800,
      "ANNEE": 2014,
      "CP": 54510,
      "VILLE": "Tomblaine",
      "CHAUFFAGE": "Gaz"
   },
   {
      "LNG": "6.134240",
      "INVESTISSEMENT": "5448,07",
      "TRAVAUX": "Chauffage",
      "KG CO2 EVITES": 1300,
      "TYPE TRAVAUX": "Gaz condensation",
      "LAT": "48.66686",
      "KWH CUMAC": "132000",
      "AIDE FINANCIERE": "550",
      "ADRESSE": "Rue Alix Leclcerc",
      "KWH ECONOMISES": 6500,
      "ANNEE": 2014,
      "CP": 54000,
      "VILLE": "Nancy",
      "CHAUFFAGE": "Gaz"
   },
   {
      "LNG": "6.185580",
      "INVESTISSEMENT": "4365,26",
      "TRAVAUX": "Chauffage",
      "KG CO2 EVITES": 1700,
      "TYPE TRAVAUX": "Gaz condensation",
      "LAT": "48.66261",
      "KWH CUMAC": "168000",
      "AIDE FINANCIERE": "550",
      "ADRESSE": "Allée Des Bruyères",
      "KWH ECONOMISES": 8300,
      "ANNEE": 2014,
      "CP": 54500,
      "VILLE": "Vandoeuvre-lès-Nancy",
      "CHAUFFAGE": "Gaz"
   },
   {
      "LNG": "6.195638",
      "INVESTISSEMENT": "2500",
      "TRAVAUX": "Isolation",
      "KG CO2 EVITES": 200,
      "TYPE TRAVAUX": "Gaz condensation",
      "LAT": "48.62169",
      "KWH CUMAC": "48960",
      "AIDE FINANCIERE": "163,2",
      "ADRESSE": "Rue Du Breuil",
      "KWH ECONOMISES": 2300,
      "ANNEE": 2014,
      "CP": 54710,
      "VILLE": "Fléville-devant-Nancy",
      "CHAUFFAGE": "Electricite"
   },
   {
      "LNG": "6.206513",
      "INVESTISSEMENT": "4200",
      "TRAVAUX": "Isolation",
      "KG CO2 EVITES": 1800,
      "TYPE TRAVAUX": "Toiture",
      "LAT": "48.64368",
      "KWH CUMAC": "186200",
      "AIDE FINANCIERE": "784",
      "ADRESSE": "Rue Gounod",
      "KWH ECONOMISES": 8600,
      "ANNEE": 2014,
      "CP": 54710,
      "VILLE": "Fléville-devant-Nancy",
      "CHAUFFAGE": "Gaz"
   },
   {
      "LNG": "6.237953",
      "INVESTISSEMENT": "2855,7",
      "TRAVAUX": "Isolation",
      "KG CO2 EVITES": 1800,
      "TYPE TRAVAUX": "Toiture",
      "LAT": "48.67677",
      "KWH CUMAC": "184870",
      "AIDE FINANCIERE": "583,8",
      "ADRESSE": "Rue De Normandie",
      "KWH ECONOMISES": 8600,
      "ANNEE": 2014,
      "CP": 54420,
      "VILLE": "Saulxures-lès-Nancy",
      "CHAUFFAGE": "Gaz"
   },
   {
      "LNG": "6.213547",
      "INVESTISSEMENT": "3367,7",
      "TRAVAUX": "Chauffage",
      "KG CO2 EVITES": 1300,
      "TYPE TRAVAUX": "Gaz condensation",
      "LAT": "48.65276",
      "KWH CUMAC": "132000",
      "AIDE FINANCIERE": "550",
      "ADRESSE": "Rue Gustave Flaubert",
      "KWH ECONOMISES": 6500,
      "ANNEE": 2014,
      "CP": 54410,
      "VILLE": "Laneuveville-devant-Nancy",
      "CHAUFFAGE": "Gaz"
   },
   {
      "LNG": "6.133999",
      "INVESTISSEMENT": "3727,32",
      "TRAVAUX": "Chauffage",
      "KG CO2 EVITES": 800,
      "TYPE TRAVAUX": "Gaz condensation",
      "LAT": "48.68495",
      "KWH CUMAC": "81000",
      "AIDE FINANCIERE": "350",
      "ADRESSE": "Rue De La Forêt",
      "KWH ECONOMISES": 4000,
      "ANNEE": 2014,
      "CP": 54520,
      "VILLE": "Laxou",
      "CHAUFFAGE": "Gaz"
   },
   {
      "LNG": "6.133999",
      "INVESTISSEMENT": "565,56",
      "TRAVAUX": "Isolation",
      "KG CO2 EVITES": 800,
      "TYPE TRAVAUX": "Gaz condensation",
      "LAT": "48.68495",
      "KWH CUMAC": "85500",
      "AIDE FINANCIERE": "270",
      "ADRESSE": "Rue De La Forêt",
      "KWH ECONOMISES": 4000,
      "ANNEE": 2014,
      "CP": 54520,
      "VILLE": "Laxou",
      "CHAUFFAGE": "Gaz"
   },
   {
      "LNG": "6.158862",
      "INVESTISSEMENT": "1111,27",
      "TRAVAUX": "Isolation",
      "KG CO2 EVITES": 1100,
      "TYPE TRAVAUX": "Toiture",
      "LAT": "48.68556",
      "KWH CUMAC": "118560",
      "AIDE FINANCIERE": "374,4",
      "ADRESSE": "Rue Du Sergent Bibillon",
      "KWH ECONOMISES": 5500,
      "ANNEE": 2014,
      "CP": 54000,
      "VILLE": "Nancy",
      "CHAUFFAGE": "Gaz"
   },
   {
      "LNG": "6.164832",
      "INVESTISSEMENT": "2626,95",
      "TRAVAUX": "Chauffage",
      "KG CO2 EVITES": 1300,
      "TYPE TRAVAUX": "Gaz condensation",
      "LAT": "48.61503",
      "KWH CUMAC": "132000",
      "AIDE FINANCIERE": "550",
      "ADRESSE": "Impasse Breton",
      "KWH ECONOMISES": 6500,
      "ANNEE": 2014,
      "CP": 54710,
      "VILLE": "Ludres",
      "CHAUFFAGE": "Gaz"
   },
   {
      "LNG": "6.186626",
      "INVESTISSEMENT": "9867",
      "TRAVAUX": "Chauffage",
      "KG CO2 EVITES": 1500,
      "TYPE TRAVAUX": "PAC Géothermique",
      "LAT": "48.69838",
      "KWH CUMAC": "224000",
      "AIDE FINANCIERE": "650",
      "ADRESSE": "Rue Laflize",
      "KWH ECONOMISES": 16600,
      "ANNEE": 2014,
      "CP": 54000,
      "VILLE": "Nancy",
      "CHAUFFAGE": "Electricite"
   },
   {
      "LNG": "6.178122",
      "INVESTISSEMENT": "11856,82",
      "TRAVAUX": "Isolation",
      "KG CO2 EVITES": 300,
      "TYPE TRAVAUX": "Toiture",
      "LAT": "48.65594",
      "KWH CUMAC": "79200",
      "AIDE FINANCIERE": "264",
      "ADRESSE": "Rue Charles Gounod",
      "KWH ECONOMISES": 3700,
      "ANNEE": 2014,
      "CP": 54500,
      "VILLE": "Vandoeuvre-lès-Nancy",
      "CHAUFFAGE": "Electricite"
   },
   {
      "LNG": "6.180516",
      "INVESTISSEMENT": "7500",
      "TRAVAUX": "Isolation",
      "KG CO2 EVITES": 600,
      "TYPE TRAVAUX": "Toiture",
      "LAT": "48.68555",
      "KWH CUMAC": "156000",
      "AIDE FINANCIERE": "520",
      "ADRESSE": "Rue Des Ponts",
      "KWH ECONOMISES": 7200,
      "ANNEE": 2014,
      "CP": 54000,
      "VILLE": "Nancy",
      "CHAUFFAGE": "Electricite"
   },
   {
      "LNG": "6.180516",
      "INVESTISSEMENT": "7500",
      "TRAVAUX": "Isolation",
      "KG CO2 EVITES": 500,
      "TYPE TRAVAUX": "Murs",
      "LAT": "48.68555",
      "KWH CUMAC": "242060",
      "AIDE FINANCIERE": "764,4",
      "ADRESSE": "Rue Des Ponts",
      "KWH ECONOMISES": 5600,
      "ANNEE": 2014,
      "CP": 54000,
      "VILLE": "Nancy",
      "CHAUFFAGE": "Electricite"
   },
   {
      "LNG": "6.180516",
      "INVESTISSEMENT": "7500",
      "TRAVAUX": "Isolation",
      "KG CO2 EVITES": 400,
      "TYPE TRAVAUX": "Sol",
      "LAT": "48.68555",
      "KWH CUMAC": "312000",
      "AIDE FINANCIERE": "1040",
      "ADRESSE": "Rue Des Ponts",
      "KWH ECONOMISES": 4000,
      "ANNEE": 2014,
      "CP": 54000,
      "VILLE": "Nancy",
      "CHAUFFAGE": "Electricite"
   },
   {
      "LNG": "6.214207",
      "INVESTISSEMENT": "2806,3",
      "TRAVAUX": "Isolation",
      "KG CO2 EVITES": 1300,
      "TYPE TRAVAUX": "Toiture",
      "LAT": "48.65289",
      "KWH CUMAC": "131670",
      "AIDE FINANCIERE": "554,4",
      "ADRESSE": "Rue Jean De La Fontaine",
      "KWH ECONOMISES": 6100,
      "ANNEE": 2014,
      "CP": 54410,
      "VILLE": "Laneuveville-devant-Nancy",
      "CHAUFFAGE": "Gaz"
   },
   {
      "LNG": "6.172183",
      "INVESTISSEMENT": "1999,22",
      "TRAVAUX": "Isolation",
      "KG CO2 EVITES": 1700,
      "TYPE TRAVAUX": "Toiture",
      "LAT": "48.66867",
      "KWH CUMAC": "180500",
      "AIDE FINANCIERE": "570",
      "ADRESSE": "Rue Loevenbruck",
      "KWH ECONOMISES": 8400,
      "ANNEE": 2014,
      "CP": 54500,
      "VILLE": "Vandoeuvre-lès-Nancy",
      "CHAUFFAGE": "Gaz"
   },
   {
      "LNG": "6.154130",
      "INVESTISSEMENT": "4500",
      "TRAVAUX": "Isolation",
      "KG CO2 EVITES": 2400,
      "TYPE TRAVAUX": "Toiture",
      "LAT": "48.68459",
      "KWH CUMAC": "247000",
      "AIDE FINANCIERE": "780",
      "ADRESSE": "Avenue Sainte Anne",
      "KWH ECONOMISES": 11500,
      "ANNEE": 2014,
      "CP": 54520,
      "VILLE": "Laxou",
      "CHAUFFAGE": "Gaz"
   },
   {
      "LNG": "6.181349",
      "INVESTISSEMENT": "1750",
      "TRAVAUX": "Chauffage",
      "KG CO2 EVITES": 600,
      "TYPE TRAVAUX": "Gaz condensation",
      "LAT": "48.68405",
      "KWH CUMAC": "61000",
      "AIDE FINANCIERE": "250",
      "ADRESSE": "Rue Des 4 Eglises",
      "KWH ECONOMISES": 2800,
      "ANNEE": 2014,
      "CP": 54000,
      "VILLE": "Nancy",
      "CHAUFFAGE": "Gaz"
   },
   {
      "LNG": "6.143676",
      "INVESTISSEMENT": "6014,91",
      "TRAVAUX": "Chauffage",
      "KG CO2 EVITES": 1300,
      "TYPE TRAVAUX": "Gaz condensation",
      "LAT": "48.68999",
      "KWH CUMAC": "132000",
      "AIDE FINANCIERE": "550",
      "ADRESSE": "Rue Marie Odile",
      "KWH ECONOMISES": 6500,
      "ANNEE": 2014,
      "CP": 54000,
      "VILLE": "Nancy",
      "CHAUFFAGE": "Gaz"
   },
   {
      "LNG": "6.198920",
      "INVESTISSEMENT": "4897,3",
      "TRAVAUX": "Isolation",
      "KG CO2 EVITES": 1500,
      "TYPE TRAVAUX": "Toiture",
      "LAT": "48.70141",
      "KWH CUMAC": "161500",
      "AIDE FINANCIERE": "510",
      "ADRESSE": "Allée Des Peupliers",
      "KWH ECONOMISES": 7500,
      "ANNEE": 2014,
      "CP": 54130,
      "VILLE": "Saint-Max",
      "CHAUFFAGE": "Gaz"
   },
   {
      "LNG": "6.262301",
      "INVESTISSEMENT": "6284,85",
      "TRAVAUX": "Chauffage",
      "KG CO2 EVITES": 1300,
      "TYPE TRAVAUX": "Gaz condensation",
      "LAT": "48.71229",
      "KWH CUMAC": "132000",
      "AIDE FINANCIERE": "550",
      "ADRESSE": "Rue De Varinchamps",
      "KWH ECONOMISES": 6500,
      "ANNEE": 2014,
      "CP": 54280,
      "VILLE": "Seichamps",
      "CHAUFFAGE": "Gaz"
   },
   {
      "LNG": "6.167809",
      "INVESTISSEMENT": "2823,18",
      "TRAVAUX": "Chauffage",
      "KG CO2 EVITES": 600,
      "TYPE TRAVAUX": "Gaz condensation",
      "LAT": "48.69280",
      "KWH CUMAC": "61000",
      "AIDE FINANCIERE": "250",
      "ADRESSE": "Rue De L'Oratoire",
      "KWH ECONOMISES": 2800,
      "ANNEE": 2014,
      "CP": 54000,
      "VILLE": "Nancy",
      "CHAUFFAGE": "Gaz"
   },
   {
      "LNG": "6.146828",
      "INVESTISSEMENT": "7616,24",
      "TRAVAUX": "Chauffage",
      "KG CO2 EVITES": 1700,
      "TYPE TRAVAUX": "Gaz condensation",
      "LAT": "48.68843",
      "KWH CUMAC": "168000",
      "AIDE FINANCIERE": "550",
      "ADRESSE": "Rue De Gerbéviller",
      "KWH ECONOMISES": 8300,
      "ANNEE": 2014,
      "CP": 54000,
      "VILLE": "Nancy",
      "CHAUFFAGE": "Gaz"
   },
   {
      "LNG": "6.145217",
      "INVESTISSEMENT": "2000",
      "TRAVAUX": "Isolation",
      "KG CO2 EVITES": 1800,
      "TYPE TRAVAUX": "Toiture",
      "LAT": "48.67597",
      "KWH CUMAC": "190000",
      "AIDE FINANCIERE": "600",
      "ADRESSE": "Rue Du Luxembourg",
      "KWH ECONOMISES": 8800,
      "ANNEE": 2014,
      "CP": 54520,
      "VILLE": "Laxou",
      "CHAUFFAGE": "Gaz"
   },
   {
      "LNG": "6.145217",
      "INVESTISSEMENT": "7852,12",
      "TRAVAUX": "Chauffage",
      "KG CO2 EVITES": 1700,
      "TYPE TRAVAUX": "Gaz condensation",
      "LAT": "48.67597",
      "KWH CUMAC": "168000",
      "AIDE FINANCIERE": "550",
      "ADRESSE": "Rue Du Luxembourg",
      "KWH ECONOMISES": 8300,
      "ANNEE": 2014,
      "CP": 54520,
      "VILLE": "Laxou",
      "CHAUFFAGE": "Gaz"
   },
   {
      "LNG": "6.144963",
      "INVESTISSEMENT": "1500",
      "TRAVAUX": "Isolation",
      "KG CO2 EVITES": 400,
      "TYPE TRAVAUX": "Gaz condensation",
      "LAT": "48.68282",
      "KWH CUMAC": "39900",
      "AIDE FINANCIERE": "126",
      "ADRESSE": "Rue Des Clos",
      "KWH ECONOMISES": 1800,
      "ANNEE": 2014,
      "CP": 54520,
      "VILLE": "Laxou",
      "CHAUFFAGE": "Gaz"
   },
   {
      "LNG": "6.144963",
      "INVESTISSEMENT": "1500",
      "TRAVAUX": "Isolation",
      "KG CO2 EVITES": 300,
      "TYPE TRAVAUX": "Gaz condensation",
      "LAT": "48.68282",
      "KWH CUMAC": "54250",
      "AIDE FINANCIERE": "175",
      "ADRESSE": "Rue Des Clos",
      "KWH ECONOMISES": 1300,
      "ANNEE": 2014,
      "CP": 54520,
      "VILLE": "Laxou",
      "CHAUFFAGE": "Gaz"
   },
   {
      "LNG": "6.125875",
      "INVESTISSEMENT": "1711",
      "TRAVAUX": "Isolation",
      "KG CO2 EVITES": 100,
      "TYPE TRAVAUX": "Gaz condensation",
      "LAT": "48.69863",
      "KWH CUMAC": "15200",
      "AIDE FINANCIERE": "48",
      "ADRESSE": "Rue De La Madine",
      "KWH ECONOMISES": 700,
      "ANNEE": 2014,
      "CP": 54320,
      "VILLE": "Maxéville",
      "CHAUFFAGE": "Gaz"
   },
   {
      "LNG": "6.105509",
      "INVESTISSEMENT": "1800",
      "TRAVAUX": "Isolation",
      "KG CO2 EVITES": 1800,
      "TYPE TRAVAUX": "Gaz condensation",
      "LAT": "48.65562",
      "KWH CUMAC": "190000",
      "AIDE FINANCIERE": "600",
      "ADRESSE": "Boulevard Valonnière",
      "KWH ECONOMISES": 8800,
      "ANNEE": 2014,
      "CP": 54600,
      "VILLE": "Villers-lès-Nancy",
      "CHAUFFAGE": "Gaz"
   },
   {
      "LNG": "6.105509",
      "INVESTISSEMENT": "6000",
      "TRAVAUX": "Chauffage",
      "KG CO2 EVITES": 1300,
      "TYPE TRAVAUX": "Gaz condensation",
      "LAT": "48.65562",
      "KWH CUMAC": "132000",
      "AIDE FINANCIERE": "550",
      "ADRESSE": "Boulevard Valonnière",
      "KWH ECONOMISES": 6500,
      "ANNEE": 2014,
      "CP": 54600,
      "VILLE": "Villers-lès-Nancy",
      "CHAUFFAGE": "Gaz"
   },
   {
      "LNG": "6.147751",
      "INVESTISSEMENT": "2926,57",
      "TRAVAUX": "Chauffage",
      "KG CO2 EVITES": 1700,
      "TYPE TRAVAUX": "Gaz condensation",
      "LAT": "48.68890",
      "KWH CUMAC": "168000",
      "AIDE FINANCIERE": "550",
      "ADRESSE": "Rue Du Bois Le Pretre",
      "KWH ECONOMISES": 8300,
      "ANNEE": 2014,
      "CP": 54000,
      "VILLE": "Nancy",
      "CHAUFFAGE": "Gaz"
   },
   {
      "LNG": "6.197834",
      "INVESTISSEMENT": "2666,65",
      "TRAVAUX": "Isolation",
      "KG CO2 EVITES": 900,
      "TYPE TRAVAUX": "Gaz condensation",
      "LAT": "48.70841",
      "KWH CUMAC": "94202",
      "AIDE FINANCIERE": "297,48",
      "ADRESSE": "Rue Albert Camus",
      "KWH ECONOMISES": 4400,
      "ANNEE": 2014,
      "CP": 54220,
      "VILLE": "Malzéville",
      "CHAUFFAGE": "Gaz"
   },
   {
      "LNG": "6.133999",
      "INVESTISSEMENT": "1000",
      "TRAVAUX": "Isolation",
      "KG CO2 EVITES": 500,
      "TYPE TRAVAUX": "Gaz condensation",
      "LAT": "48.68495",
      "KWH CUMAC": "190000",
      "AIDE FINANCIERE": "650",
      "ADRESSE": "Rue De La Forêt",
      "KWH ECONOMISES": 2400,
      "ANNEE": 2014,
      "CP": 54520,
      "VILLE": "Laxou",
      "CHAUFFAGE": "Gaz"
   },
   {
      "LNG": "6.179479",
      "INVESTISSEMENT": "6500",
      "TRAVAUX": "Isolation",
      "KG CO2 EVITES": 1700,
      "TYPE TRAVAUX": "Gaz condensation",
      "LAT": "48.71557",
      "KWH CUMAC": "178600",
      "AIDE FINANCIERE": "752",
      "ADRESSE": "Avenue Du General Leclerc",
      "KWH ECONOMISES": 8300,
      "ANNEE": 2014,
      "CP": 54220,
      "VILLE": "Malzéville",
      "CHAUFFAGE": "Gaz"
   },
   {
      "LNG": "6.103366",
      "INVESTISSEMENT": "4726,4",
      "TRAVAUX": "Chauffage",
      "KG CO2 EVITES": 1300,
      "TYPE TRAVAUX": "Gaz condensation",
      "LAT": "48.65737",
      "KWH CUMAC": "132000",
      "AIDE FINANCIERE": "550",
      "ADRESSE": "Rue De Remenaumont",
      "KWH ECONOMISES": 6500,
      "ANNEE": 2014,
      "CP": 54600,
      "VILLE": "Villers-lès-Nancy",
      "CHAUFFAGE": "Gaz"
   },
   {
      "LNG": "6.108315",
      "INVESTISSEMENT": "2645,94",
      "TRAVAUX": "Isolation",
      "KG CO2 EVITES": 700,
      "TYPE TRAVAUX": "Gaz condensation",
      "LAT": "48.65108",
      "KWH CUMAC": "148800",
      "AIDE FINANCIERE": "480",
      "ADRESSE": "Boulevard De Champelle",
      "KWH ECONOMISES": 3400,
      "ANNEE": 2014,
      "CP": 54600,
      "VILLE": "Villers-lès-Nancy",
      "CHAUFFAGE": "Gaz"
   },
   {
      "LNG": "6.108315",
      "INVESTISSEMENT": "818,68",
      "TRAVAUX": "Isolation",
      "KG CO2 EVITES": 1800,
      "TYPE TRAVAUX": "Gaz condensation",
      "LAT": "48.65108",
      "KWH CUMAC": "190000",
      "AIDE FINANCIERE": "600",
      "ADRESSE": "Boulevard De Champelle",
      "KWH ECONOMISES": 8800,
      "ANNEE": 2014,
      "CP": 54600,
      "VILLE": "Villers-lès-Nancy",
      "CHAUFFAGE": "Gaz"
   },
   {
      "LNG": "6.210578",
      "INVESTISSEMENT": "6887,42",
      "TRAVAUX": "Chauffage",
      "KG CO2 EVITES": 1300,
      "TYPE TRAVAUX": "Gaz condensation",
      "LAT": "48.68280",
      "KWH CUMAC": "132000",
      "AIDE FINANCIERE": "550",
      "ADRESSE": "Boulevard Barbusse",
      "KWH ECONOMISES": 6500,
      "ANNEE": 2014,
      "CP": 54510,
      "VILLE": "Tomblaine",
      "CHAUFFAGE": "Gaz"
   },
   {
      "LNG": "6.168350",
      "INVESTISSEMENT": "7361,75",
      "TRAVAUX": "Chauffage",
      "KG CO2 EVITES": 1700,
      "TYPE TRAVAUX": "Gaz condensation",
      "LAT": "48.60954",
      "KWH CUMAC": "168000",
      "AIDE FINANCIERE": "550",
      "ADRESSE": "Rue De La Planchelle",
      "KWH ECONOMISES": 8300,
      "ANNEE": 2014,
      "CP": 54710,
      "VILLE": "Ludres",
      "CHAUFFAGE": "Gaz"
   },
   {
      "LNG": "6.137223",
      "INVESTISSEMENT": "4900",
      "TRAVAUX": "Chauffage",
      "KG CO2 EVITES": 900,
      "TYPE TRAVAUX": "Gaz condensation",
      "LAT": "48.69840",
      "KWH CUMAC": "84000",
      "AIDE FINANCIERE": "350",
      "ADRESSE": "Rue Capitaine Guynemer",
      "KWH ECONOMISES": 4200,
      "ANNEE": 2014,
      "CP": 54000,
      "VILLE": "Nancy",
      "CHAUFFAGE": "Gaz"
   },
   {
      "LNG": "6.156633",
      "INVESTISSEMENT": "4300",
      "TRAVAUX": "Chauffage",
      "KG CO2 EVITES": 1300,
      "TYPE TRAVAUX": "Gaz condensation",
      "LAT": "48.64866",
      "KWH CUMAC": "132000",
      "AIDE FINANCIERE": "550",
      "ADRESSE": "Rue De Beaujolais",
      "KWH ECONOMISES": 6500,
      "ANNEE": 2014,
      "CP": 54500,
      "VILLE": "Vandoeuvre-lès-Nancy",
      "CHAUFFAGE": "Gaz"
   },
   {
      "LNG": "6.221404",
      "INVESTISSEMENT": "5315,33",
      "TRAVAUX": "Chauffage",
      "KG CO2 EVITES": 1100,
      "TYPE TRAVAUX": "Gaz condensation",
      "LAT": "48.69997",
      "KWH CUMAC": "108000",
      "AIDE FINANCIERE": "350",
      "ADRESSE": "Quartier Du Parc",
      "KWH ECONOMISES": 5300,
      "ANNEE": 2014,
      "CP": 54270,
      "VILLE": "Essey-lès-Nancy",
      "CHAUFFAGE": "Gaz"
   },
   {
      "LNG": "6.195305",
      "INVESTISSEMENT": "3047,33",
      "TRAVAUX": "Isolation",
      "KG CO2 EVITES": 200,
      "TYPE TRAVAUX": "Gaz condensation",
      "LAT": "48.67637",
      "KWH CUMAC": "93765",
      "AIDE FINANCIERE": "296,1",
      "ADRESSE": "Place Provençale",
      "KWH ECONOMISES": 2200,
      "ANNEE": 2014,
      "CP": 54000,
      "VILLE": "Nancy",
      "CHAUFFAGE": "Electricite"
   },
   {
      "LNG": "6.195305",
      "INVESTISSEMENT": "3964,378",
      "TRAVAUX": "Isolation",
      "KG CO2 EVITES": 200,
      "TYPE TRAVAUX": "Gaz condensation",
      "LAT": "48.67637",
      "KWH CUMAC": "174000",
      "AIDE FINANCIERE": "725",
      "ADRESSE": "Place Provençale",
      "KWH ECONOMISES": 2200,
      "ANNEE": 2014,
      "CP": 54000,
      "VILLE": "Nancy",
      "CHAUFFAGE": "Electricite"
   },
   {
      "LNG": "6.195305",
      "INVESTISSEMENT": "10189,5",
      "TRAVAUX": "Isolation",
      "KG CO2 EVITES": 400,
      "TYPE TRAVAUX": "Gaz condensation",
      "LAT": "48.67637",
      "KWH CUMAC": "100800",
      "AIDE FINANCIERE": "420",
      "ADRESSE": "Place Provençale",
      "KWH ECONOMISES": 4700,
      "ANNEE": 2014,
      "CP": 54000,
      "VILLE": "Nancy",
      "CHAUFFAGE": "Electricite"
   },
   {
      "LNG": "6.235621",
      "INVESTISSEMENT": "3928,82",
      "TRAVAUX": "Isolation",
      "KG CO2 EVITES": 1800,
      "TYPE TRAVAUX": "Gaz condensation",
      "LAT": "48.68439",
      "KWH CUMAC": "186200",
      "AIDE FINANCIERE": "588",
      "ADRESSE": "Rue Louis Bleriot",
      "KWH ECONOMISES": 8600,
      "ANNEE": 2014,
      "CP": 54420,
      "VILLE": "Saulxures-lès-Nancy",
      "CHAUFFAGE": "Gaz"
   },
   {
      "LNG": "6.134240",
      "INVESTISSEMENT": "7295,33",
      "TRAVAUX": "Chauffage",
      "KG CO2 EVITES": 600,
      "TYPE TRAVAUX": "Gaz condensation",
      "LAT": "48.66686",
      "KWH CUMAC": "61000",
      "AIDE FINANCIERE": "250",
      "ADRESSE": "Rue Henri Paulin",
      "KWH ECONOMISES": 2800,
      "ANNEE": 2014,
      "CP": 54000,
      "VILLE": "Nancy",
      "CHAUFFAGE": "Gaz"
   },
   {
      "LNG": "6.262009",
      "INVESTISSEMENT": "4966,83",
      "TRAVAUX": "Chauffage",
      "KG CO2 EVITES": 1300,
      "TYPE TRAVAUX": "Gaz condensation",
      "LAT": "48.65432",
      "KWH CUMAC": "132000",
      "AIDE FINANCIERE": "550",
      "ADRESSE": "Rue Des Jardins",
      "KWH ECONOMISES": 6500,
      "ANNEE": 2014,
      "CP": 54510,
      "VILLE": "Art-Sur-Meurthe",
      "CHAUFFAGE": "Gaz"
   },
   {
      "LNG": "6.167295",
      "INVESTISSEMENT": "5515,58",
      "TRAVAUX": "Chauffage",
      "KG CO2 EVITES": 1300,
      "TYPE TRAVAUX": "Gaz condensation",
      "LAT": "48.64822",
      "KWH CUMAC": "132000",
      "AIDE FINANCIERE": "550",
      "ADRESSE": "Rue De Houdemont",
      "KWH ECONOMISES": 6500,
      "ANNEE": 2014,
      "CP": 54500,
      "VILLE": "Vandoeuvre-lès-Nancy",
      "CHAUFFAGE": "Gaz"
   },
   {
      "LNG": "6.193883",
      "INVESTISSEMENT": "13473,41",
      "TRAVAUX": "Isolation",
      "KG CO2 EVITES": 400,
      "TYPE TRAVAUX": "Gaz condensation",
      "LAT": "48.66986",
      "KWH CUMAC": "209000",
      "AIDE FINANCIERE": "660",
      "ADRESSE": "Avenue Général Leclerc",
      "KWH ECONOMISES": 4800,
      "ANNEE": 2014,
      "CP": 54500,
      "VILLE": "Vandoeuvre-lès-Nancy",
      "CHAUFFAGE": "Electricite"
   },
   {
      "LNG": "6.250903",
      "INVESTISSEMENT": "1003,2",
      "TRAVAUX": "Isolation",
      "KG CO2 EVITES": 200,
      "TYPE TRAVAUX": "Gaz condensation",
      "LAT": "48.70678",
      "KWH CUMAC": "46500",
      "AIDE FINANCIERE": "150",
      "ADRESSE": "Avenue De Grémillon",
      "KWH ECONOMISES": 1100,
      "ANNEE": 2014,
      "CP": 54425,
      "VILLE": "Pulnoy",
      "CHAUFFAGE": "Gaz"
   },
   {
      "LNG": "6.250903",
      "INVESTISSEMENT": "1055",
      "TRAVAUX": "Isolation",
      "KG CO2 EVITES": 700,
      "TYPE TRAVAUX": "Gaz condensation",
      "LAT": "48.70678",
      "KWH CUMAC": "76000",
      "AIDE FINANCIERE": "240",
      "ADRESSE": "Avenue De Grémillon",
      "KWH ECONOMISES": 3500,
      "ANNEE": 2014,
      "CP": 54425,
      "VILLE": "Pulnoy",
      "CHAUFFAGE": "Gaz"
   },
   {
      "LNG": "6.169839",
      "INVESTISSEMENT": "5000",
      "TRAVAUX": "Isolation",
      "KG CO2 EVITES": 100,
      "TYPE TRAVAUX": "Gaz condensation",
      "LAT": "48.61745",
      "KWH CUMAC": "47500",
      "AIDE FINANCIERE": "150",
      "ADRESSE": "Rue Des Mazurots",
      "KWH ECONOMISES": 1100,
      "ANNEE": 2014,
      "CP": 54710,
      "VILLE": "Ludres",
      "CHAUFFAGE": "Electricite"
   },
   {
      "LNG": "6.169839",
      "INVESTISSEMENT": "1500",
      "TRAVAUX": "Isolation",
      "KG CO2 EVITES": 400,
      "TYPE TRAVAUX": "Gaz condensation",
      "LAT": "48.61745",
      "KWH CUMAC": "98400",
      "AIDE FINANCIERE": "328",
      "ADRESSE": "Rue Des Mazurots",
      "KWH ECONOMISES": 4600,
      "ANNEE": 2014,
      "CP": 54710,
      "VILLE": "Ludres",
      "CHAUFFAGE": "Electricite"
   },
   {
      "LNG": "6.220596",
      "INVESTISSEMENT": "6706,5",
      "TRAVAUX": "Isolation",
      "KG CO2 EVITES": 800,
      "TYPE TRAVAUX": "Gaz condensation",
      "LAT": "48.70566",
      "KWH CUMAC": "167400",
      "AIDE FINANCIERE": "540",
      "ADRESSE": "Rue Roger Bérin",
      "KWH ECONOMISES": 3900,
      "ANNEE": 2014,
      "CP": 54270,
      "VILLE": "Essey-lès-Nancy",
      "CHAUFFAGE": "Gaz"
   },
   {
      "LNG": "6.166957",
      "INVESTISSEMENT": "4967,36",
      "TRAVAUX": "Chauffage",
      "KG CO2 EVITES": 1300,
      "TYPE TRAVAUX": "Gaz condensation",
      "LAT": "48.61649",
      "KWH CUMAC": "132000",
      "AIDE FINANCIERE": "550",
      "ADRESSE": "Rue Jean Mermoz",
      "KWH ECONOMISES": 6500,
      "ANNEE": 2014,
      "CP": 54710,
      "VILLE": "Ludres",
      "CHAUFFAGE": "Gaz"
   },
   {
      "LNG": "6.216158",
      "INVESTISSEMENT": "6469,29",
      "TRAVAUX": "Chauffage",
      "KG CO2 EVITES": 1700,
      "TYPE TRAVAUX": "Gaz condensation",
      "LAT": "48.70920",
      "KWH CUMAC": "168000",
      "AIDE FINANCIERE": "550",
      "ADRESSE": "Rue Des Erables",
      "KWH ECONOMISES": 8300,
      "ANNEE": 2014,
      "CP": 54270,
      "VILLE": "Essey-lès-Nancy",
      "CHAUFFAGE": "Gaz"
   },
   {
      "LNG": "6.139985",
      "INVESTISSEMENT": "1925,37",
      "TRAVAUX": "Isolation",
      "KG CO2 EVITES": 1800,
      "TYPE TRAVAUX": "Gaz condensation",
      "LAT": "48.70008",
      "KWH CUMAC": "190000",
      "AIDE FINANCIERE": "600",
      "ADRESSE": "Rue Hélène Boucher",
      "KWH ECONOMISES": 8800,
      "ANNEE": 2014,
      "CP": 54000,
      "VILLE": "Nancy",
      "CHAUFFAGE": "Gaz"
   },
   {
      "LNG": "6.169947",
      "INVESTISSEMENT": "2967,08",
      "TRAVAUX": "Isolation",
      "KG CO2 EVITES": 1400,
      "TYPE TRAVAUX": "Gaz condensation",
      "LAT": "48.64601",
      "KWH CUMAC": "148200",
      "AIDE FINANCIERE": "468",
      "ADRESSE": "Rue Des Sources",
      "KWH ECONOMISES": 6900,
      "ANNEE": 2014,
      "CP": 54180,
      "VILLE": "Houdemont",
      "CHAUFFAGE": "Gaz"
   },
   {
      "LNG": "6.169947",
      "INVESTISSEMENT": "5005,98",
      "TRAVAUX": "Chauffage",
      "KG CO2 EVITES": 900,
      "TYPE TRAVAUX": "Gaz condensation",
      "LAT": "48.64601",
      "KWH CUMAC": "84000",
      "AIDE FINANCIERE": "350",
      "ADRESSE": "Rue Des Sources",
      "KWH ECONOMISES": 4200,
      "ANNEE": 2014,
      "CP": 54180,
      "VILLE": "Houdemont",
      "CHAUFFAGE": "Gaz"
   },
   {
      "LNG": "6.197470",
      "INVESTISSEMENT": "4220",
      "TRAVAUX": "Chauffage",
      "KG CO2 EVITES": 1700,
      "TYPE TRAVAUX": "Gaz condensation",
      "LAT": "48.65019",
      "KWH CUMAC": "168000",
      "AIDE FINANCIERE": "550",
      "ADRESSE": "Rue Du Breuil",
      "KWH ECONOMISES": 8300,
      "ANNEE": 2014,
      "CP": 54180,
      "VILLE": "Heillecourt",
      "CHAUFFAGE": "Gaz"
   },
   {
      "LNG": "6.149276",
      "INVESTISSEMENT": "3198,76",
      "TRAVAUX": "Chauffage",
      "KG CO2 EVITES": 1300,
      "TYPE TRAVAUX": "Gaz condensation",
      "LAT": "48.67517",
      "KWH CUMAC": "132000",
      "AIDE FINANCIERE": "550",
      "ADRESSE": "Rue Baron Buquet",
      "KWH ECONOMISES": 6500,
      "ANNEE": 2014,
      "CP": 54600,
      "VILLE": "Villers-lès-Nancy",
      "CHAUFFAGE": "Gaz"
   },
   {
      "LNG": "6.171915",
      "INVESTISSEMENT": "13870,93",
      "TRAVAUX": "Chauffage",
      "KG CO2 EVITES": 1700,
      "TYPE TRAVAUX": "Gaz condensation",
      "LAT": "48.64450",
      "KWH CUMAC": "168000",
      "AIDE FINANCIERE": "550",
      "ADRESSE": "Rue Du Général De Gaulle",
      "KWH ECONOMISES": 8300,
      "ANNEE": 2014,
      "CP": 54180,
      "VILLE": "Houdemont",
      "CHAUFFAGE": "Gaz"
   },
   {
      "LNG": "6.154097",
      "INVESTISSEMENT": "8857,45",
      "TRAVAUX": "Chauffage",
      "KG CO2 EVITES": 1700,
      "TYPE TRAVAUX": "Gaz condensation",
      "LAT": "48.64695",
      "KWH CUMAC": "168000",
      "AIDE FINANCIERE": "550",
      "ADRESSE": "Allée De Roncevaux",
      "KWH ECONOMISES": 8300,
      "ANNEE": 2014,
      "CP": 54500,
      "VILLE": "Vandoeuvre-lès-Nancy",
      "CHAUFFAGE": "Gaz"
   },
   {
      "LNG": "6.106961",
      "INVESTISSEMENT": "4475,44",
      "TRAVAUX": "Isolation",
      "KG CO2 EVITES": 1800,
      "TYPE TRAVAUX": "Gaz condensation",
      "LAT": "48.65778",
      "KWH CUMAC": "186200",
      "AIDE FINANCIERE": "784",
      "ADRESSE": "Rue Des Cisterciens",
      "KWH ECONOMISES": 8600,
      "ANNEE": 2014,
      "CP": 54600,
      "VILLE": "Villers-lès-Nancy",
      "CHAUFFAGE": "Gaz"
   },
   {
      "LNG": "6.210781",
      "INVESTISSEMENT": "2671,26",
      "TRAVAUX": "Isolation",
      "KG CO2 EVITES": 1800,
      "TYPE TRAVAUX": "Gaz condensation",
      "LAT": "48.65897",
      "KWH CUMAC": "182400",
      "AIDE FINANCIERE": "576",
      "ADRESSE": "Rue Des Lanterniers",
      "KWH ECONOMISES": 8500,
      "ANNEE": 2014,
      "CP": 54140,
      "VILLE": "Jarville-la-Malgrange",
      "CHAUFFAGE": "Gaz"
   },
   {
      "LNG": "6.221545",
      "INVESTISSEMENT": "14674",
      "TRAVAUX": "Chauffage",
      "KG CO2 EVITES": 1700,
      "TYPE TRAVAUX": "Gaz condensation",
      "LAT": "48.65183",
      "KWH CUMAC": "168000",
      "AIDE FINANCIERE": "550",
      "ADRESSE": "Rue Des Aulnois",
      "KWH ECONOMISES": 8300,
      "ANNEE": 2014,
      "CP": 54410,
      "VILLE": "Laneuveville-devant-Nancy",
      "CHAUFFAGE": "Gaz"
   },
   {
      "LNG": "6.163818",
      "INVESTISSEMENT": "2973",
      "TRAVAUX": "Chauffage",
      "KG CO2 EVITES": 600,
      "TYPE TRAVAUX": "Gaz condensation",
      "LAT": "48.67464",
      "KWH CUMAC": "61000",
      "AIDE FINANCIERE": "250",
      "ADRESSE": "Rue Eugène Hugo",
      "KWH ECONOMISES": 2800,
      "ANNEE": 2014,
      "CP": 54000,
      "VILLE": "Nancy",
      "CHAUFFAGE": "Gaz"
   },
   {
      "LNG": "6.107165",
      "INVESTISSEMENT": "18639,11",
      "TRAVAUX": "Isolation",
      "KG CO2 EVITES": 1600,
      "TYPE TRAVAUX": "Gaz condensation",
      "LAT": "48.65192",
      "KWH CUMAC": "337900",
      "AIDE FINANCIERE": "1090",
      "ADRESSE": "Rue De La Croix Mitta",
      "KWH ECONOMISES": 7800,
      "ANNEE": 2014,
      "CP": 54600,
      "VILLE": "Villers-lès-Nancy",
      "CHAUFFAGE": "Gaz"
   },
   {
      "LNG": "6.205898",
      "INVESTISSEMENT": "3201",
      "TRAVAUX": "Chauffage",
      "KG CO2 EVITES": 1700,
      "TYPE TRAVAUX": "Gaz condensation",
      "LAT": "48.66781",
      "KWH CUMAC": "168000",
      "AIDE FINANCIERE": "550",
      "ADRESSE": "Rue De Renémont",
      "KWH ECONOMISES": 8300,
      "ANNEE": 2014,
      "CP": 54140,
      "VILLE": "Jarville-la-Malgrange",
      "CHAUFFAGE": "Gaz"
   },
   {
      "LNG": "6.157037",
      "INVESTISSEMENT": "2563,65",
      "TRAVAUX": "Isolation",
      "KG CO2 EVITES": 700,
      "TYPE TRAVAUX": "Gaz condensation",
      "LAT": "48.65198",
      "KWH CUMAC": "139500",
      "AIDE FINANCIERE": "450",
      "ADRESSE": "Allée Du Beaujolais",
      "KWH ECONOMISES": 3200,
      "ANNEE": 2014,
      "CP": 54500,
      "VILLE": "Vandoeuvre-lès-Nancy",
      "CHAUFFAGE": "Gaz"
   },
   {
      "LNG": "6.157037",
      "INVESTISSEMENT": "7905,115",
      "TRAVAUX": "Isolation",
      "KG CO2 EVITES": 2300,
      "TYPE TRAVAUX": "Gaz condensation",
      "LAT": "48.65198",
      "KWH CUMAC": "241300",
      "AIDE FINANCIERE": "762",
      "ADRESSE": "Allée Du Beaujolais",
      "KWH ECONOMISES": 11200,
      "ANNEE": 2014,
      "CP": 54500,
      "VILLE": "Vandoeuvre-lès-Nancy",
      "CHAUFFAGE": "Gaz"
   },
   {
      "LNG": "6.178354",
      "INVESTISSEMENT": "5000",
      "TRAVAUX": "Chauffage",
      "KG CO2 EVITES": 600,
      "TYPE TRAVAUX": "Gaz condensation",
      "LAT": "48.69390",
      "KWH CUMAC": "61000",
      "AIDE FINANCIERE": "250",
      "ADRESSE": "Place Colonel Fabien",
      "KWH ECONOMISES": 2800,
      "ANNEE": 2014,
      "CP": 54000,
      "VILLE": "Nancy",
      "CHAUFFAGE": "Gaz"
   },
   {
      "LNG": "6.141609",
      "INVESTISSEMENT": "5523,62",
      "TRAVAUX": "Chauffage",
      "KG CO2 EVITES": 1300,
      "TYPE TRAVAUX": "Gaz condensation",
      "LAT": "48.69606",
      "KWH CUMAC": "132000",
      "AIDE FINANCIERE": "550",
      "ADRESSE": "Rue De La Colline",
      "KWH ECONOMISES": 6500,
      "ANNEE": 2014,
      "CP": 54000,
      "VILLE": "Nancy",
      "CHAUFFAGE": "Gaz"
   },
   {
      "LNG": "6.175258",
      "INVESTISSEMENT": "7999,96",
      "TRAVAUX": "Chauffage",
      "KG CO2 EVITES": 1700,
      "TYPE TRAVAUX": "Gaz condensation",
      "LAT": "48.69803",
      "KWH CUMAC": "168000",
      "AIDE FINANCIERE": "550",
      "ADRESSE": "Ru E Philippe De Gueldres",
      "KWH ECONOMISES": 8300,
      "ANNEE": 2014,
      "CP": 54000,
      "VILLE": "Nancy",
      "CHAUFFAGE": "Gaz"
   },
   {
      "LNG": "6.169781",
      "INVESTISSEMENT": "3510,26",
      "TRAVAUX": "Chauffage",
      "KG CO2 EVITES": 1300,
      "TYPE TRAVAUX": "Gaz condensation",
      "LAT": "48.67503",
      "KWH CUMAC": "132000",
      "AIDE FINANCIERE": "550",
      "ADRESSE": "Rue Du Général Haxo",
      "KWH ECONOMISES": 6500,
      "ANNEE": 2014,
      "CP": 54000,
      "VILLE": "Nancy",
      "CHAUFFAGE": "Gaz"
   },
   {
      "LNG": "6.164113",
      "INVESTISSEMENT": "8858,84",
      "TRAVAUX": "Isolation",
      "KG CO2 EVITES": 500,
      "TYPE TRAVAUX": "Gaz condensation",
      "LAT": "48.69051",
      "KWH CUMAC": "102300",
      "AIDE FINANCIERE": "330",
      "ADRESSE": "Rue De Turique",
      "KWH ECONOMISES": 2400,
      "ANNEE": 2014,
      "CP": 54000,
      "VILLE": "Nancy",
      "CHAUFFAGE": "Gaz"
   },
   {
      "LNG": "6.195423",
      "INVESTISSEMENT": "8440",
      "TRAVAUX": "Chauffage",
      "KG CO2 EVITES": 1700,
      "TYPE TRAVAUX": "Gaz condensation",
      "LAT": "48.65089",
      "KWH CUMAC": "168000",
      "AIDE FINANCIERE": "550",
      "ADRESSE": "Rue De La Tournelle",
      "KWH ECONOMISES": 8300,
      "ANNEE": 2014,
      "CP": 54180,
      "VILLE": "Heillecourt",
      "CHAUFFAGE": "Gaz"
   },
   {
      "LNG": "6.172313",
      "INVESTISSEMENT": "9331,475",
      "TRAVAUX": "Isolation",
      "KG CO2 EVITES": 2600,
      "TYPE TRAVAUX": "Gaz condensation",
      "LAT": "48.61370",
      "KWH CUMAC": "275500",
      "AIDE FINANCIERE": "870",
      "ADRESSE": "Rue Albert Camus",
      "KWH ECONOMISES": 12800,
      "ANNEE": 2014,
      "CP": 54710,
      "VILLE": "Ludres",
      "CHAUFFAGE": "Gaz"
   },
   {
      "LNG": "6.167298",
      "INVESTISSEMENT": "6600,08",
      "TRAVAUX": "Chauffage",
      "KG CO2 EVITES": 1700,
      "TYPE TRAVAUX": "Gaz condensation",
      "LAT": "48.68617",
      "KWH CUMAC": "168000",
      "AIDE FINANCIERE": "550",
      "ADRESSE": "Avenue Foch",
      "KWH ECONOMISES": 8300,
      "ANNEE": 2014,
      "CP": 54000,
      "VILLE": "Nancy",
      "CHAUFFAGE": "Gaz"
   },
   {
      "LNG": "6.155359",
      "INVESTISSEMENT": "16135,6",
      "TRAVAUX": "Isolation",
      "KG CO2 EVITES": 900,
      "TYPE TRAVAUX": "Gaz condensation",
      "LAT": "48.67766",
      "KWH CUMAC": "95000",
      "AIDE FINANCIERE": "400",
      "ADRESSE": "Avenue Pierre Curie",
      "KWH ECONOMISES": 4400,
      "ANNEE": 2014,
      "CP": 54520,
      "VILLE": "Laxou",
      "CHAUFFAGE": "Gaz"
   },
   {
      "LNG": "6.212176",
      "INVESTISSEMENT": "2870",
      "TRAVAUX": "Isolation",
      "KG CO2 EVITES": 2100,
      "TYPE TRAVAUX": "Gaz condensation",
      "LAT": "48.70936",
      "KWH CUMAC": "223440",
      "AIDE FINANCIERE": "940,8",
      "ADRESSE": "Rue Point Du Jour",
      "KWH ECONOMISES": 10400,
      "ANNEE": 2014,
      "CP": 54130,
      "VILLE": "Dommartemont",
      "CHAUFFAGE": "Gaz"
   },
   {
      "LNG": "6.153431",
      "INVESTISSEMENT": "2738,78",
      "TRAVAUX": "Chauffage",
      "KG CO2 EVITES": 1300,
      "TYPE TRAVAUX": "Gaz condensation",
      "LAT": "48.66952",
      "KWH CUMAC": "132000",
      "AIDE FINANCIERE": "550",
      "ADRESSE": "Rue De La Mutualité",
      "KWH ECONOMISES": 6500,
      "ANNEE": 2014,
      "CP": 54600,
      "VILLE": "Villers-lès-Nancy",
      "CHAUFFAGE": "Gaz"
   },
   {
      "LNG": "6.204863",
      "INVESTISSEMENT": "4473,2",
      "TRAVAUX": "Chauffage",
      "KG CO2 EVITES": 900,
      "TYPE TRAVAUX": "Gaz condensation",
      "LAT": "48.64361",
      "KWH CUMAC": "84000",
      "AIDE FINANCIERE": "350",
      "ADRESSE": "Rue Berlioz",
      "KWH ECONOMISES": 4200,
      "ANNEE": 2014,
      "CP": 54710,
      "VILLE": "Fléville-devant-Nancy",
      "CHAUFFAGE": "Gaz"
   },
   {
      "LNG": "6.184322",
      "INVESTISSEMENT": "9298,35",
      "TRAVAUX": "Chauffage",
      "KG CO2 EVITES": 1300,
      "TYPE TRAVAUX": "Gaz condensation",
      "LAT": "48.67395",
      "KWH CUMAC": "132000",
      "AIDE FINANCIERE": "550",
      "ADRESSE": "Quai De La Bataille",
      "KWH ECONOMISES": 6500,
      "ANNEE": 2014,
      "CP": 54000,
      "VILLE": "Nancy",
      "CHAUFFAGE": "Gaz"
   },
   {
      "LNG": "6.155572",
      "INVESTISSEMENT": "3481,5",
      "TRAVAUX": "Isolation",
      "KG CO2 EVITES": 1800,
      "TYPE TRAVAUX": "Gaz condensation",
      "LAT": "48.62129",
      "KWH CUMAC": "190000",
      "AIDE FINANCIERE": "800",
      "ADRESSE": "Chemin De La Cuse",
      "KWH ECONOMISES": 8800,
      "ANNEE": 2014,
      "CP": 54710,
      "VILLE": "Ludres",
      "CHAUFFAGE": "Gaz"
   },
   {
      "LNG": "6.256786",
      "INVESTISSEMENT": "3468,84",
      "TRAVAUX": "Chauffage",
      "KG CO2 EVITES": 1300,
      "TYPE TRAVAUX": "Gaz condensation",
      "LAT": "48.71407",
      "KWH CUMAC": "132000",
      "AIDE FINANCIERE": "550",
      "ADRESSE": "Rue De St Laurent",
      "KWH ECONOMISES": 6500,
      "ANNEE": 2014,
      "CP": 54280,
      "VILLE": "Seichamps",
      "CHAUFFAGE": "Gaz"
   },
   {
      "LNG": "6.180875",
      "INVESTISSEMENT": "6273,03",
      "TRAVAUX": "Chauffage",
      "KG CO2 EVITES": 600,
      "TYPE TRAVAUX": "Gaz condensation",
      "LAT": "48.67687",
      "KWH CUMAC": "61000",
      "AIDE FINANCIERE": "250",
      "ADRESSE": "Rue De Général Clinchant",
      "KWH ECONOMISES": 2800,
      "ANNEE": 2014,
      "CP": 54000,
      "VILLE": "Nancy",
      "CHAUFFAGE": "Gaz"
   },
   {
      "LNG": "6.163824",
      "INVESTISSEMENT": "3077,13",
      "TRAVAUX": "Chauffage",
      "KG CO2 EVITES": 1700,
      "TYPE TRAVAUX": "Gaz condensation",
      "LAT": "48.70487",
      "KWH CUMAC": "168000",
      "AIDE FINANCIERE": "550",
      "ADRESSE": "Route De Metz",
      "KWH ECONOMISES": 8300,
      "ANNEE": 2014,
      "CP": 54320,
      "VILLE": "Maxéville",
      "CHAUFFAGE": "Gaz"
   },
   {
      "LNG": "6.255366",
      "INVESTISSEMENT": "7195,42",
      "TRAVAUX": "Chauffage",
      "KG CO2 EVITES": 1300,
      "TYPE TRAVAUX": "Gaz condensation",
      "LAT": "48.69540",
      "KWH CUMAC": "132000",
      "AIDE FINANCIERE": "550",
      "ADRESSE": "Rue De Provence",
      "KWH ECONOMISES": 6500,
      "ANNEE": 2014,
      "CP": 54425,
      "VILLE": "Pulnoy",
      "CHAUFFAGE": "Gaz"
   },
   {
      "LNG": "6.106961",
      "INVESTISSEMENT": "4815",
      "TRAVAUX": "Chauffage",
      "KG CO2 EVITES": 1300,
      "TYPE TRAVAUX": "Gaz condensation",
      "LAT": "48.65778",
      "KWH CUMAC": "132000",
      "AIDE FINANCIERE": "550",
      "ADRESSE": "Rue Des Cisterciens",
      "KWH ECONOMISES": 6500,
      "ANNEE": 2014,
      "CP": 54600,
      "VILLE": "Villers-lès-Nancy",
      "CHAUFFAGE": "Gaz"
   },
   {
      "LNG": "6.182366",
      "INVESTISSEMENT": "4117,67",
      "TRAVAUX": "Chauffage",
      "KG CO2 EVITES": 350,
      "TYPE TRAVAUX": "Gaz condensation",
      "LAT": "48.70906",
      "KWH CUMAC": "84000",
      "AIDE FINANCIERE": "350",
      "ADRESSE": "Impasse Des Jardins Fleuris",
      "KWH ECONOMISES": 4200,
      "ANNEE": 2014,
      "CP": 54220,
      "VILLE": "Malzéville",
      "CHAUFFAGE": "Gaz"
   },
   {
      "LNG": "6.162846",
      "INVESTISSEMENT": "5848,92",
      "TRAVAUX": "Chauffage",
      "KG CO2 EVITES": 1300,
      "TYPE TRAVAUX": "Gaz condensation",
      "LAT": "48.67569",
      "KWH CUMAC": "132000",
      "AIDE FINANCIERE": "550",
      "ADRESSE": "Rue De Placieux",
      "KWH ECONOMISES": 6500,
      "ANNEE": 2014,
      "CP": 54000,
      "VILLE": "Nancy",
      "CHAUFFAGE": "Gaz"
   },
   {
      "LNG": "6.143051",
      "INVESTISSEMENT": "6719,79",
      "TRAVAUX": "Chauffage",
      "KG CO2 EVITES": 1700,
      "TYPE TRAVAUX": "Gaz condensation",
      "LAT": "48.67270",
      "KWH CUMAC": "168000",
      "AIDE FINANCIERE": "550",
      "ADRESSE": "Rue De Laxou",
      "KWH ECONOMISES": 8300,
      "ANNEE": 2014,
      "CP": 54600,
      "VILLE": "Villers-lès-Nancy",
      "CHAUFFAGE": "Gaz"
   }
]
